[
  {
    "id": 1,
    "point": {
      "latitude": 53.116306,
      "longitude": 23.127989
    },
    "name": "KPK Zajezdnia",
    "lines": [
      "10",
      "100",
      "11",
      "14",
      "16",
      "19",
      "20",
      "21",
      "22",
      "25",
      "28",
      "4",
      "N2",
      "N3",
      "N4"
    ]
  },
  {
    "id": 2,
    "point": {
      "latitude": 53.124832,
      "longitude": 23.114172
    },
    "name": "Popiełuszki/Hetmańska",
    "lines": [
      "12",
      "20",
      "21",
      "8"
    ]
  },
  {
    "id": 3,
    "point": {
      "latitude": 53.125888,
      "longitude": 23.105895
    },
    "name": "Popiełuszki/Upalna",
    "lines": [
      "12",
      "20",
      "21",
      "8"
    ]
  },
  {
    "id": 4,
    "point": {
      "latitude": 53.126542,
      "longitude": 23.101432
    },
    "name": "Popiełuszki/Os.Słoneczny Stok",
    "lines": [
      "12",
      "20",
      "21",
      "8"
    ]
  },
  {
    "id": 5,
    "point": {
      "latitude": 53.1296,
      "longitude": 23.094653
    },
    "name": "Armii Krajowej/Powstańców",
    "lines": [
      "20"
    ]
  },
  {
    "id": 6,
    "point": {
      "latitude": 53.132297,
      "longitude": 23.089333
    },
    "name": "Armii Krajowej/Szkoła",
    "lines": [
      "20"
    ]
  },
  {
    "id": 7,
    "point": {
      "latitude": 53.132613,
      "longitude": 23.086973
    },
    "name": "Armii Krajowej/Pętla",
    "lines": [
      "20"
    ]
  },
  {
    "id": 8,
    "point": {
      "latitude": 53.132317,
      "longitude": 23.087395
    },
    "name": "Armii Krajowej/Pętla",
    "lines": [
      "20"
    ]
  },
  {
    "id": 9,
    "point": {
      "latitude": 53.132223,
      "longitude": 23.089377
    },
    "name": "Armii Krajowej/Szkoła",
    "lines": [
      "20"
    ]
  },
  {
    "id": 10,
    "point": {
      "latitude": 53.128713,
      "longitude": 23.095775
    },
    "name": "Armii Krajowej/Bat. Chłopskich",
    "lines": [
      "20"
    ]
  },
  {
    "id": 11,
    "point": {
      "latitude": 53.126347,
      "longitude": 23.100272
    },
    "name": "Popiełuszki/Kościół Św.Jadwigi",
    "lines": [
      "12",
      "20",
      "21",
      "8"
    ]
  },
  {
    "id": 12,
    "point": {
      "latitude": 53.125365,
      "longitude": 23.107592
    },
    "name": "Popiełuszki/Słonecznikowa",
    "lines": [
      "12",
      "20",
      "21",
      "8"
    ]
  },
  {
    "id": 13,
    "point": {
      "latitude": 53.124103,
      "longitude": 23.116315
    },
    "name": "Gen.E.Fieldorfa \"Nila\"",
    "lines": [
      "11",
      "17",
      "2",
      "20",
      "28",
      "8"
    ]
  },
  {
    "id": 14,
    "point": {
      "latitude": 53.123357,
      "longitude": 23.12269
    },
    "name": "Kopernika/Składowa",
    "lines": [
      "20",
      "28",
      "6"
    ]
  },
  {
    "id": 15,
    "point": {
      "latitude": 53.125015,
      "longitude": 23.128347
    },
    "name": "Kopernika/Kanonierska",
    "lines": [
      "20",
      "28",
      "6"
    ]
  },
  {
    "id": 16,
    "point": {
      "latitude": 53.126475,
      "longitude": 23.137623
    },
    "name": "Łomżyńska/Młynowa",
    "lines": [
      "19",
      "20",
      "23"
    ]
  },
  {
    "id": 17,
    "point": {
      "latitude": 53.131628,
      "longitude": 23.138682
    },
    "name": "Wyszyńskiego / Urząd Marszałkowski",
    "lines": [
      "120",
      "20",
      "27",
      "29",
      "N2"
    ]
  },
  {
    "id": 18,
    "point": {
      "latitude": 53.129937,
      "longitude": 23.141265
    },
    "name": "Wyszyńskiego",
    "lines": [
      "120",
      "20",
      "27",
      "29",
      "N2"
    ]
  },
  {
    "id": 19,
    "point": {
      "latitude": 53.128975,
      "longitude": 23.144335
    },
    "name": "Sosnowskiego / Wyszyńskiego",
    "lines": [
      "120",
      "20",
      "N2"
    ]
  },
  {
    "id": 20,
    "point": {
      "latitude": 53.131278,
      "longitude": 23.152665
    },
    "name": "Kalinowskiego / Teatr Lalek",
    "lines": [
      "10",
      "120",
      "20",
      "7",
      "N2"
    ]
  },
  {
    "id": 21,
    "point": {
      "latitude": 53.131337,
      "longitude": 23.155477
    },
    "name": "Plac Uniwersytecki",
    "lines": [
      "10",
      "120",
      "20",
      "7",
      "N2"
    ]
  },
  {
    "id": 22,
    "point": {
      "latitude": 53.133732,
      "longitude": 23.156895
    },
    "name": "Malmeda/Zamenhofa",
    "lines": [
      "102",
      "14",
      "2",
      "20",
      "4",
      "5",
      "N1",
      "N2"
    ]
  },
  {
    "id": 23,
    "point": {
      "latitude": 53.136642,
      "longitude": 23.16378
    },
    "name": "Jurowiecka/Sienkiewicza",
    "lines": [
      "102",
      "20",
      "26"
    ]
  },
  {
    "id": 24,
    "point": {
      "latitude": 53.138905,
      "longitude": 23.16079
    },
    "name": "Jurowiecka/Ciepła",
    "lines": [
      "102",
      "20",
      "26"
    ]
  },
  {
    "id": 25,
    "point": {
      "latitude": 53.143928,
      "longitude": 23.157548
    },
    "name": "Zakłady Graficzne",
    "lines": [
      "102",
      "20",
      "22",
      "26",
      "27",
      "N3"
    ]
  },
  {
    "id": 26,
    "point": {
      "latitude": 53.145555,
      "longitude": 23.15301
    },
    "name": "Radzymińska/Białostoczek",
    "lines": [
      "102",
      "20",
      "22",
      "25",
      "27"
    ]
  },
  {
    "id": 27,
    "point": {
      "latitude": 53.14769,
      "longitude": 23.149343
    },
    "name": "Sokólska/Zagumienna",
    "lines": [
      "102",
      "15",
      "20",
      "25",
      "27"
    ]
  },
  {
    "id": 28,
    "point": {
      "latitude": 53.153153,
      "longitude": 23.153777
    },
    "name": "Tysiąclecia P.P./Technikum Elektryczne",
    "lines": [
      "102",
      "15",
      "20"
    ]
  },
  {
    "id": 29,
    "point": {
      "latitude": 53.156128,
      "longitude": 23.151885
    },
    "name": "Tysiąclecia P.P./St.Paliw",
    "lines": [
      "102",
      "15",
      "20"
    ]
  },
  {
    "id": 30,
    "point": {
      "latitude": 53.158135,
      "longitude": 23.15252
    },
    "name": "Andersa/Tysiąclecia P.P.",
    "lines": [
      "15",
      "16",
      "20",
      "25"
    ]
  },
  {
    "id": 31,
    "point": {
      "latitude": 53.154567,
      "longitude": 23.15937
    },
    "name": "Fabryka Dywanów",
    "lines": [
      "15",
      "16",
      "20",
      "25"
    ]
  },
  {
    "id": 32,
    "point": {
      "latitude": 53.15216,
      "longitude": 23.16597
    },
    "name": "Andersa/1 Armii W.P.",
    "lines": [
      "15",
      "20",
      "25"
    ]
  },
  {
    "id": 33,
    "point": {
      "latitude": 53.15287,
      "longitude": 23.166323
    },
    "name": "Elektrociepłownia",
    "lines": [
      "15",
      "20",
      "27"
    ]
  },
  {
    "id": 34,
    "point": {
      "latitude": 53.154085,
      "longitude": 23.162017
    },
    "name": "Fabryka Dywanów",
    "lines": [
      "15",
      "16",
      "20",
      "25"
    ]
  },
  {
    "id": 35,
    "point": {
      "latitude": 53.158493,
      "longitude": 23.153223
    },
    "name": "Andersa/Tysiąclecia P.P.",
    "lines": [
      "15",
      "16",
      "20",
      "25"
    ]
  },
  {
    "id": 36,
    "point": {
      "latitude": 53.157558,
      "longitude": 23.15146
    },
    "name": "Tysiąclecia P.P./St.Paliw",
    "lines": [
      "102",
      "15",
      "20"
    ]
  },
  {
    "id": 37,
    "point": {
      "latitude": 53.152227,
      "longitude": 23.154005
    },
    "name": "Tysiąclecia P.P./Grodzieńska",
    "lines": [
      "102",
      "15",
      "20"
    ]
  },
  {
    "id": 38,
    "point": {
      "latitude": 53.14954,
      "longitude": 23.152097
    },
    "name": "Sokólska/Szkoła",
    "lines": [
      "102",
      "15",
      "20",
      "26",
      "27",
      "N3"
    ]
  },
  {
    "id": 39,
    "point": {
      "latitude": 53.146172,
      "longitude": 23.15026
    },
    "name": "Zagumienna",
    "lines": [
      "102",
      "15",
      "20",
      "26",
      "27",
      "N3"
    ]
  },
  {
    "id": 40,
    "point": {
      "latitude": 53.14558,
      "longitude": 23.155527
    },
    "name": "Radzymińska / Sanktuarium",
    "lines": [
      "102",
      "15",
      "20",
      "22",
      "26",
      "27"
    ]
  },
  {
    "id": 41,
    "point": {
      "latitude": 53.145085,
      "longitude": 23.157263
    },
    "name": "Tysiąclecia P.P./Plac Ks.M.Sopoćki",
    "lines": [
      "102",
      "20",
      "22",
      "26",
      "27"
    ]
  },
  {
    "id": 42,
    "point": {
      "latitude": 53.14078,
      "longitude": 23.158915
    },
    "name": "Sklep Łowiecki",
    "lines": [
      "102",
      "20",
      "26"
    ]
  },
  {
    "id": 43,
    "point": {
      "latitude": 53.136335,
      "longitude": 23.163988
    },
    "name": "Jurowiecka/Sienkiewicza",
    "lines": [
      "102",
      "20",
      "26"
    ]
  },
  {
    "id": 44,
    "point": {
      "latitude": 53.133908,
      "longitude": 23.161843
    },
    "name": "Sienkiewicza / Białówny",
    "lines": [
      "102",
      "104",
      "14",
      "16",
      "19",
      "2",
      "20",
      "26",
      "3",
      "4",
      "5",
      "8",
      "N1",
      "N3"
    ]
  },
  {
    "id": 45,
    "point": {
      "latitude": 53.13319,
      "longitude": 23.155845
    },
    "name": "Malmeda/Lipowa",
    "lines": [
      "14",
      "2",
      "20",
      "26",
      "4",
      "5",
      "8",
      "N1"
    ]
  },
  {
    "id": 46,
    "point": {
      "latitude": 53.131448,
      "longitude": 23.150005
    },
    "name": "Kalinowskiego/OiFP",
    "lines": [
      "120",
      "20",
      "N2"
    ]
  },
  {
    "id": 47,
    "point": {
      "latitude": 53.129988,
      "longitude": 23.145415
    },
    "name": "Sosnowskiego/Grunwaldzka",
    "lines": [
      "120",
      "20",
      "N2"
    ]
  },
  {
    "id": 48,
    "point": {
      "latitude": 53.128748,
      "longitude": 23.143172
    },
    "name": "Wyszyńskiego / Sosnowskiego",
    "lines": [
      "120",
      "20",
      "27",
      "29",
      "N2"
    ]
  },
  {
    "id": 49,
    "point": {
      "latitude": 53.131217,
      "longitude": 23.139632
    },
    "name": "Wyszyńskiego / Stołeczna",
    "lines": [
      "120",
      "20",
      "27",
      "29",
      "N2"
    ]
  },
  {
    "id": 50,
    "point": {
      "latitude": 53.132382,
      "longitude": 23.13644
    },
    "name": "Dworzec PKS",
    "lines": [
      "100",
      "107",
      "120",
      "19",
      "20",
      "22",
      "23"
    ]
  },
  {
    "id": 51,
    "point": {
      "latitude": 53.128602,
      "longitude": 23.136442
    },
    "name": "B.M.Cassino/Sosnowa",
    "lines": [
      "19",
      "20",
      "23"
    ]
  },
  {
    "id": 52,
    "point": {
      "latitude": 53.12566,
      "longitude": 23.134705
    },
    "name": "Kopernika/Stacja Paliw",
    "lines": [
      "20",
      "28",
      "6"
    ]
  },
  {
    "id": 53,
    "point": {
      "latitude": 53.125393,
      "longitude": 23.129035
    },
    "name": "Kopernika/Lokomotywownia",
    "lines": [
      "20",
      "28",
      "6"
    ]
  },
  {
    "id": 54,
    "point": {
      "latitude": 53.12412,
      "longitude": 23.124678
    },
    "name": "Kopernika/Tunel",
    "lines": [
      "20",
      "28",
      "6"
    ]
  },
  {
    "id": 55,
    "point": {
      "latitude": 53.132377,
      "longitude": 23.083938
    },
    "name": "Boboli",
    "lines": [
      "20"
    ]
  },
  {
    "id": 56,
    "point": {
      "latitude": 53.135377,
      "longitude": 23.083177
    },
    "name": null,
    "lines": null
  },
  {
    "id": 57,
    "point": {
      "latitude": 53.135462,
      "longitude": 23.083277
    },
    "name": "Boboli Cmentarz",
    "lines": [
      "20"
    ]
  },
  {
    "id": 58,
    "point": {
      "latitude": 53.131827,
      "longitude": 23.084128
    },
    "name": "Boboli",
    "lines": [
      "20"
    ]
  },
  {
    "id": 59,
    "point": {
      "latitude": 52.965524,
      "longitude": 23.156829
    },
    "name": "Złotniki/Kolonia",
    "lines": [
      "202"
    ]
  },
  {
    "id": 60,
    "point": {
      "latitude": 53.140814,
      "longitude": 23.160006
    },
    "name": "KZK Zajezdnia",
    "lines": [
      "1",
      "101",
      "103",
      "106",
      "120",
      "13",
      "15",
      "18",
      "29",
      "7",
      "9"
    ]
  },
  {
    "id": 61,
    "point": {
      "latitude": 53.135413,
      "longitude": 23.16463
    },
    "name": "Sienkiewicza/Rzeka Biała",
    "lines": [
      "100",
      "101",
      "105",
      "13",
      "16",
      "18",
      "2",
      "21",
      "3",
      "6",
      "8",
      "9",
      "N1",
      "N2",
      "N3",
      "N4",
      "N5",
      "N6"
    ]
  },
  {
    "id": 62,
    "point": {
      "latitude": 53.133764,
      "longitude": 23.169323
    },
    "name": "Warszawska Bank",
    "lines": [
      "101",
      "105",
      "2",
      "21",
      "8",
      "N1",
      "N2",
      "N4",
      "N5"
    ]
  },
  {
    "id": 63,
    "point": {
      "latitude": 53.131407,
      "longitude": 23.169537
    },
    "name": "Branickiego/Teatr",
    "lines": [
      "1",
      "101",
      "105",
      "12",
      "13",
      "15",
      "17",
      "24"
    ]
  },
  {
    "id": 64,
    "point": {
      "latitude": 53.127713,
      "longitude": 23.175148
    },
    "name": "Branickiego/Świętojańska",
    "lines": [
      "1",
      "101",
      "105",
      "12",
      "13",
      "15",
      "17",
      "24"
    ]
  },
  {
    "id": 65,
    "point": {
      "latitude": 53.124477,
      "longitude": 23.183558
    },
    "name": "Branickiego/Miłosza",
    "lines": [
      "1",
      "101",
      "105",
      "13",
      "15",
      "17",
      "2",
      "22",
      "24"
    ]
  },
  {
    "id": 66,
    "point": {
      "latitude": 53.122948,
      "longitude": 23.18791
    },
    "name": "Geodetów",
    "lines": [
      "1",
      "101",
      "105",
      "13",
      "15",
      "17",
      "2",
      "22",
      "24"
    ]
  },
  {
    "id": 67,
    "point": {
      "latitude": 53.121335,
      "longitude": 23.192822
    },
    "name": "Branickiego/Nowowarszawska",
    "lines": [
      "1",
      "101",
      "105",
      "13",
      "15",
      "17",
      "2",
      "22",
      "24"
    ]
  },
  {
    "id": 68,
    "point": {
      "latitude": 53.122142,
      "longitude": 23.204633
    },
    "name": "Baranowicka/Ciołkowskiego",
    "lines": [
      "1",
      "101",
      "15",
      "17",
      "N4"
    ]
  },
  {
    "id": 69,
    "point": {
      "latitude": 53.122423,
      "longitude": 23.209038
    },
    "name": "Baranowicka/Sowlańska",
    "lines": [
      "1",
      "101",
      "15",
      "17",
      "N4"
    ]
  },
  {
    "id": 70,
    "point": {
      "latitude": 53.120105,
      "longitude": 23.210215
    },
    "name": "Sowlańska/Piaskowa",
    "lines": [
      "101",
      "17"
    ]
  },
  {
    "id": 71,
    "point": {
      "latitude": 53.118183,
      "longitude": 23.210007
    },
    "name": "Sowlańska/Dojnowska",
    "lines": [
      "101",
      "17",
      "N4"
    ]
  },
  {
    "id": 72,
    "point": {
      "latitude": 53.115212,
      "longitude": 23.21371
    },
    "name": "Dojnowska/Społem",
    "lines": [
      "101",
      "17",
      "N4"
    ]
  },
  {
    "id": 73,
    "point": {
      "latitude": 53.114112,
      "longitude": 23.216648
    },
    "name": "Plażowa/Dojnowska",
    "lines": [
      "101",
      "15",
      "17",
      "N4"
    ]
  },
  {
    "id": 74,
    "point": {
      "latitude": 53.109702,
      "longitude": 23.212382
    },
    "name": "Plażowa / Suchowolca",
    "lines": [
      "101",
      "15",
      "N4"
    ]
  },
  {
    "id": 75,
    "point": {
      "latitude": 53.108145,
      "longitude": 23.211797
    },
    "name": "Ks.Suchowolca/Proroka Eliasza",
    "lines": [
      "2"
    ]
  },
  {
    "id": 76,
    "point": {
      "latitude": 53.106183,
      "longitude": 23.215458
    },
    "name": "Ks.Suchowolca/Dojlidy Cmentarz I",
    "lines": [
      "101",
      "2"
    ]
  },
  {
    "id": 77,
    "point": {
      "latitude": 53.104002,
      "longitude": 23.219497
    },
    "name": "Ks.Suchowolca/Dojlidy Cmentarz II",
    "lines": [
      "101",
      "2"
    ]
  },
  {
    "id": 78,
    "point": {
      "latitude": 53.102662,
      "longitude": 23.222033
    },
    "name": "Zabłudowska/Kol. Dojlidy",
    "lines": [
      "101",
      "2"
    ]
  },
  {
    "id": 79,
    "point": {
      "latitude": 53.10009,
      "longitude": 23.226755
    },
    "name": "Zabłudowska/Zalesie",
    "lines": [
      "101",
      "2"
    ]
  },
  {
    "id": 80,
    "point": {
      "latitude": 53.097165,
      "longitude": 23.232067
    },
    "name": "Zabłudowska/Stoczni Gdańskiej",
    "lines": [
      "101",
      "2"
    ]
  },
  {
    "id": 81,
    "point": {
      "latitude": 53.094027,
      "longitude": 23.23783
    },
    "name": "Zabłudowska/Kol.Dojlidy",
    "lines": [
      "101"
    ]
  },
  {
    "id": 82,
    "point": {
      "latitude": 53.090403,
      "longitude": 23.243925
    },
    "name": "Zabłudowska/ Logarytmiczna",
    "lines": [
      "101"
    ]
  },
  {
    "id": 83,
    "point": {
      "latitude": 53.081667,
      "longitude": 23.25805
    },
    "name": "Kuriany PKS",
    "lines": [
      "101"
    ]
  },
  {
    "id": 84,
    "point": {
      "latitude": 53.078053,
      "longitude": 23.261345
    },
    "name": "Kuriany/Pętla",
    "lines": [
      "101"
    ]
  },
  {
    "id": 85,
    "point": {
      "latitude": 53.07812,
      "longitude": 23.261368
    },
    "name": "Kuriany/Pętla",
    "lines": [
      "101"
    ]
  },
  {
    "id": 86,
    "point": {
      "latitude": 53.082877,
      "longitude": 23.256595
    },
    "name": "Kuriany PKS",
    "lines": [
      "101"
    ]
  },
  {
    "id": 87,
    "point": {
      "latitude": 53.09134,
      "longitude": 23.242702
    },
    "name": "Zabłudowska/ Gminna",
    "lines": [
      "101"
    ]
  },
  {
    "id": 88,
    "point": {
      "latitude": 53.0951,
      "longitude": 23.236222
    },
    "name": "Zabłudowska/Zagórki",
    "lines": [
      "101"
    ]
  },
  {
    "id": 89,
    "point": {
      "latitude": 53.097247,
      "longitude": 23.232297
    },
    "name": "Zabłudowska/Stoczni Gdańskiej",
    "lines": [
      "101",
      "2",
      "N4"
    ]
  },
  {
    "id": 90,
    "point": {
      "latitude": 53.101025,
      "longitude": 23.225093
    },
    "name": "Zabłudowska/Masztowa",
    "lines": [
      "101",
      "2",
      "N4"
    ]
  },
  {
    "id": 91,
    "point": {
      "latitude": 53.103953,
      "longitude": 23.21986
    },
    "name": "Ks.Suchowolca/Ordynacka",
    "lines": [
      "101",
      "2",
      "N4"
    ]
  },
  {
    "id": 92,
    "point": {
      "latitude": 53.106932,
      "longitude": 23.214308
    },
    "name": "Ks.Suchowolca/Dojlidy Cmentarz I",
    "lines": [
      "101",
      "2",
      "N4"
    ]
  },
  {
    "id": 93,
    "point": {
      "latitude": 53.108212,
      "longitude": 23.21206
    },
    "name": "Suchowolca / Cm.Prawosławny",
    "lines": [
      "101",
      "2",
      "N4"
    ]
  },
  {
    "id": 94,
    "point": {
      "latitude": 53.11009,
      "longitude": 23.213218
    },
    "name": "Plażowa/Cerk.Pror.Eliasza",
    "lines": [
      "101",
      "15",
      "17",
      "N4"
    ]
  },
  {
    "id": 95,
    "point": {
      "latitude": 53.11476,
      "longitude": 23.216042
    },
    "name": "Dojnowska/Plażowa",
    "lines": [
      "101",
      "17",
      "N4"
    ]
  },
  {
    "id": 96,
    "point": {
      "latitude": 53.115402,
      "longitude": 23.212563
    },
    "name": "Dojnowska/Sowlańska",
    "lines": [
      "101",
      "17",
      "N4"
    ]
  },
  {
    "id": 97,
    "point": {
      "latitude": 53.116737,
      "longitude": 23.209877
    },
    "name": "Sowlańska/Dojnowska",
    "lines": [
      "101",
      "17",
      "N4"
    ]
  },
  {
    "id": 98,
    "point": {
      "latitude": 53.12078,
      "longitude": 23.210373
    },
    "name": "Sowlańska/Piaskowa",
    "lines": [
      "101",
      "17"
    ]
  },
  {
    "id": 99,
    "point": {
      "latitude": 53.122513,
      "longitude": 23.208303
    },
    "name": "Baranowicka/Chłodnia",
    "lines": [
      "1",
      "101",
      "15",
      "17",
      "N4"
    ]
  },
  {
    "id": 100,
    "point": {
      "latitude": 53.122028,
      "longitude": 23.20161
    },
    "name": "Baranowicka / Opolska",
    "lines": [
      "1",
      "101",
      "105",
      "15",
      "17",
      "N4"
    ]
  },
  {
    "id": 101,
    "point": {
      "latitude": 53.121868,
      "longitude": 23.192198
    },
    "name": "Branickiego / Baranowicka",
    "lines": [
      "1",
      "101",
      "105",
      "13",
      "15",
      "17",
      "2",
      "22"
    ]
  },
  {
    "id": 102,
    "point": {
      "latitude": 53.123795,
      "longitude": 23.186477
    },
    "name": "Geodetów",
    "lines": [
      "1",
      "101",
      "105",
      "13",
      "15",
      "17",
      "2",
      "22"
    ]
  },
  {
    "id": 103,
    "point": {
      "latitude": 53.12596,
      "longitude": 23.181325
    },
    "name": "Branickiego / Piastowska",
    "lines": [
      "1",
      "101",
      "105",
      "12",
      "13",
      "15",
      "17",
      "21"
    ]
  },
  {
    "id": 104,
    "point": {
      "latitude": 53.12807,
      "longitude": 23.175038
    },
    "name": "Branickiego / Automobilklub",
    "lines": [
      "1",
      "101",
      "105",
      "12",
      "13",
      "15",
      "17",
      "21"
    ]
  },
  {
    "id": 105,
    "point": {
      "latitude": 53.131453,
      "longitude": 23.169838
    },
    "name": "Branickiego / Urząd Miejski",
    "lines": [
      "1",
      "101",
      "105",
      "12",
      "13",
      "15",
      "17",
      "19",
      "21",
      "24",
      "28",
      "4",
      "N4"
    ]
  },
  {
    "id": 106,
    "point": {
      "latitude": 53.132811,
      "longitude": 23.168512
    },
    "name": "Piłsudskiego/Pałacowa",
    "lines": [
      "1",
      "101",
      "103",
      "104",
      "105",
      "106",
      "12",
      "15",
      "19",
      "21",
      "24",
      "4",
      "6",
      "N1",
      "N2",
      "N4",
      "N5",
      "N6"
    ]
  },
  {
    "id": 107,
    "point": {
      "latitude": 53.127622,
      "longitude": 23.144135
    },
    "name": "Kard.S.Wyszyńskiego/Młynowa",
    "lines": [
      "27",
      "29"
    ]
  },
  {
    "id": 108,
    "point": {
      "latitude": 53.124565,
      "longitude": 23.149197
    },
    "name": "Kaczorowskiego / Waszyngtona",
    "lines": [
      "104",
      "16",
      "17",
      "19",
      "3",
      "6",
      "N3"
    ]
  },
  {
    "id": 109,
    "point": {
      "latitude": 53.1265,
      "longitude": 23.150717
    },
    "name": "Kaczorowskiego / OiFP",
    "lines": [
      "104",
      "16",
      "17",
      "19",
      "3",
      "6",
      "N3"
    ]
  },
  {
    "id": 110,
    "point": {
      "latitude": 53.128918,
      "longitude": 23.15538
    },
    "name": "Legionowa/Szkoła",
    "lines": [
      "104",
      "16",
      "17",
      "19",
      "3",
      "6",
      "N3"
    ]
  },
  {
    "id": 111,
    "point": {
      "latitude": 53.13182,
      "longitude": 23.16074
    },
    "name": "Rynek Kościuszki",
    "lines": [
      "104",
      "13",
      "16",
      "19",
      "26",
      "3",
      "8",
      "N3"
    ]
  },
  {
    "id": 112,
    "point": {
      "latitude": 53.13872,
      "longitude": 23.170085
    },
    "name": "Sienkiewicza/Komenda Wojewódzka Policji",
    "lines": [
      "100",
      "13",
      "16",
      "18",
      "3",
      "6",
      "9",
      "N3",
      "N6"
    ]
  },
  {
    "id": 113,
    "point": {
      "latitude": 53.141237,
      "longitude": 23.174282
    },
    "name": "Sienkiewicza/Ryska",
    "lines": [
      "100",
      "13",
      "16",
      "18",
      "22",
      "3",
      "6",
      "9",
      "N6"
    ]
  },
  {
    "id": 114,
    "point": {
      "latitude": 53.144347,
      "longitude": 23.17943
    },
    "name": "Wasilkowska / Traugutta",
    "lines": [
      "100",
      "13",
      "16",
      "3",
      "6",
      "9",
      "N6"
    ]
  },
  {
    "id": 115,
    "point": {
      "latitude": 53.1454,
      "longitude": 23.18364
    },
    "name": "Sosabowskiego / Wasilkowska",
    "lines": [
      "13",
      "18",
      "6"
    ]
  },
  {
    "id": 116,
    "point": {
      "latitude": 53.144232,
      "longitude": 23.187718
    },
    "name": "Sosabowskiego / Kapralska",
    "lines": [
      "13",
      "18",
      "6"
    ]
  },
  {
    "id": 117,
    "point": {
      "latitude": 53.144217,
      "longitude": 23.192573
    },
    "name": "42. Pułku Piechoty / Hotel",
    "lines": [
      "13",
      "18",
      "6"
    ]
  },
  {
    "id": 118,
    "point": {
      "latitude": 53.14427,
      "longitude": 23.196303
    },
    "name": "42. Pułku Piechoty / Robotnicza",
    "lines": [
      "13",
      "18",
      "6"
    ]
  },
  {
    "id": 119,
    "point": {
      "latitude": 53.144718,
      "longitude": 23.201963
    },
    "name": "Kazimierza Wielkiego/42. Pułku Piechoty",
    "lines": [
      "18",
      "29",
      "6"
    ]
  },
  {
    "id": 120,
    "point": {
      "latitude": 53.149195,
      "longitude": 23.202005
    },
    "name": "Kazimierza Wielkiego/Chełmońskiego",
    "lines": [
      "28",
      "29",
      "N5"
    ]
  },
  {
    "id": 121,
    "point": {
      "latitude": 53.15271,
      "longitude": 23.20238
    },
    "name": "Kazimierza Wielkiego/Antoniewicza",
    "lines": [
      "N5"
    ]
  },
  {
    "id": 122,
    "point": {
      "latitude": 53.155867,
      "longitude": 23.202752
    },
    "name": "Kazimierza Wielkiego/Trawiasta",
    "lines": [
      "N5"
    ]
  },
  {
    "id": 123,
    "point": {
      "latitude": 53.160995,
      "longitude": 23.199608
    },
    "name": "Raginisa/Kazimierza Wielkiego",
    "lines": [
      "3",
      "9",
      "N5"
    ]
  },
  {
    "id": 124,
    "point": {
      "latitude": 53.163657,
      "longitude": 23.202005
    },
    "name": "Raginisa/Baśniowa",
    "lines": [
      "3",
      "9",
      "N5"
    ]
  },
  {
    "id": 125,
    "point": {
      "latitude": 53.16656,
      "longitude": 23.206435
    },
    "name": "Raginisa/Uśmiechu",
    "lines": [
      "3",
      "9",
      "N5"
    ]
  },
  {
    "id": 126,
    "point": {
      "latitude": 53.168595,
      "longitude": 23.212058
    },
    "name": "Niemeńska/Pętla",
    "lines": [
      "3",
      "9",
      "N5"
    ]
  },
  {
    "id": 127,
    "point": {
      "latitude": 53.170408,
      "longitude": 23.215103
    },
    "name": "Raginisa/Ogródki Działkowe",
    "lines": [
      "3"
    ]
  },
  {
    "id": 128,
    "point": {
      "latitude": 53.178947,
      "longitude": 23.236453
    },
    "name": "Nowodworce/Zaciszna",
    "lines": [
      "3"
    ]
  },
  {
    "id": 129,
    "point": {
      "latitude": 53.181052,
      "longitude": 23.241045
    },
    "name": "Nowodworce PKS",
    "lines": [
      "3"
    ]
  },
  {
    "id": 130,
    "point": {
      "latitude": 53.185145,
      "longitude": 23.260285
    },
    "name": null,
    "lines": null
  },
  {
    "id": 131,
    "point": {
      "latitude": 53.188275,
      "longitude": 23.26763
    },
    "name": "Ogrodniczki/Pętla",
    "lines": [
      "13"
    ]
  },
  {
    "id": 132,
    "point": {
      "latitude": 53.19132,
      "longitude": 23.287433
    },
    "name": null,
    "lines": null
  },
  {
    "id": 133,
    "point": {
      "latitude": 53.195589,
      "longitude": 23.298702
    },
    "name": null,
    "lines": null
  },
  {
    "id": 134,
    "point": {
      "latitude": 53.203642,
      "longitude": 23.312942
    },
    "name": null,
    "lines": null
  },
  {
    "id": 135,
    "point": {
      "latitude": 53.208153,
      "longitude": 23.32702
    },
    "name": null,
    "lines": null
  },
  {
    "id": 136,
    "point": {
      "latitude": 53.2092,
      "longitude": 23.336375
    },
    "name": null,
    "lines": null
  },
  {
    "id": 137,
    "point": {
      "latitude": 53.20621,
      "longitude": 23.337877
    },
    "name": null,
    "lines": null
  },
  {
    "id": 138,
    "point": {
      "latitude": 53.202472,
      "longitude": 23.339626
    },
    "name": null,
    "lines": null
  },
  {
    "id": 139,
    "point": {
      "latitude": 53.202235,
      "longitude": 23.344186
    },
    "name": null,
    "lines": null
  },
  {
    "id": 140,
    "point": {
      "latitude": 53.20636,
      "longitude": 23.343747
    },
    "name": null,
    "lines": null
  },
  {
    "id": 141,
    "point": {
      "latitude": 53.202688,
      "longitude": 23.345276
    },
    "name": null,
    "lines": null
  },
  {
    "id": 142,
    "point": {
      "latitude": 53.202285,
      "longitude": 23.339867
    },
    "name": null,
    "lines": null
  },
  {
    "id": 143,
    "point": {
      "latitude": 53.208025,
      "longitude": 23.337159
    },
    "name": null,
    "lines": null
  },
  {
    "id": 144,
    "point": {
      "latitude": 53.209912,
      "longitude": 23.334602
    },
    "name": null,
    "lines": null
  },
  {
    "id": 145,
    "point": {
      "latitude": 53.207973,
      "longitude": 23.326398
    },
    "name": null,
    "lines": null
  },
  {
    "id": 146,
    "point": {
      "latitude": 53.203642,
      "longitude": 23.312942
    },
    "name": null,
    "lines": null
  },
  {
    "id": 147,
    "point": {
      "latitude": 53.194676,
      "longitude": 23.297676
    },
    "name": null,
    "lines": null
  },
  {
    "id": 148,
    "point": {
      "latitude": 53.19098,
      "longitude": 23.284255
    },
    "name": null,
    "lines": null
  },
  {
    "id": 149,
    "point": {
      "latitude": 53.18828,
      "longitude": 23.26731
    },
    "name": "Ogrodniczki",
    "lines": [
      "13"
    ]
  },
  {
    "id": 150,
    "point": {
      "latitude": 53.18502,
      "longitude": 23.258262
    },
    "name": null,
    "lines": null
  },
  {
    "id": 151,
    "point": {
      "latitude": 53.181383,
      "longitude": 23.241665
    },
    "name": "Nowodworce PKS",
    "lines": [
      "3"
    ]
  },
  {
    "id": 152,
    "point": {
      "latitude": 53.178248,
      "longitude": 23.233149
    },
    "name": "Nowodworce/Leszczynowa",
    "lines": [
      "3"
    ]
  },
  {
    "id": 153,
    "point": {
      "latitude": 53.169813,
      "longitude": 23.213575
    },
    "name": "Raginisa/Ogródki Działkowe",
    "lines": [
      "3"
    ]
  },
  {
    "id": 154,
    "point": {
      "latitude": 53.168258,
      "longitude": 23.209967
    },
    "name": "Raginisa/Gwiazdkowa",
    "lines": [
      "3",
      "9",
      "N5"
    ]
  },
  {
    "id": 155,
    "point": {
      "latitude": 53.166247,
      "longitude": 23.205385
    },
    "name": "Raginisa/Uśmiechu",
    "lines": [
      "3",
      "9",
      "N5"
    ]
  },
  {
    "id": 156,
    "point": {
      "latitude": 53.162605,
      "longitude": 23.200828
    },
    "name": "Raginisa/Familijna",
    "lines": [
      "3",
      "9",
      "N5"
    ]
  },
  {
    "id": 157,
    "point": {
      "latitude": 53.159952,
      "longitude": 23.199645
    },
    "name": "Kazimierza Wielkiego/Raginisa",
    "lines": [
      "N5"
    ]
  },
  {
    "id": 158,
    "point": {
      "latitude": 53.154752,
      "longitude": 23.202268
    },
    "name": "Kazimierza Wielkiego/Trawiasta",
    "lines": [
      "N5"
    ]
  },
  {
    "id": 159,
    "point": {
      "latitude": 53.15172,
      "longitude": 23.201913
    },
    "name": "Kazimierza Wlk. / Antoniewicza",
    "lines": [
      "28",
      "29",
      "N5"
    ]
  },
  {
    "id": 160,
    "point": {
      "latitude": 53.148107,
      "longitude": 23.201523
    },
    "name": "Kazimierza Wielkiego/Chełmońskiego",
    "lines": [
      "18",
      "28",
      "29",
      "6",
      "N5"
    ]
  },
  {
    "id": 161,
    "point": {
      "latitude": 53.144288,
      "longitude": 23.2006
    },
    "name": "42. Pułku Piechoty / Chabrowa",
    "lines": [
      "13",
      "18",
      "6"
    ]
  },
  {
    "id": 162,
    "point": {
      "latitude": 53.144308,
      "longitude": 23.194377
    },
    "name": "42. Pułku Piechoty / Robotnicza",
    "lines": [
      "13",
      "18",
      "6"
    ]
  },
  {
    "id": 163,
    "point": {
      "latitude": 53.144083,
      "longitude": 23.189198
    },
    "name": "Sosabowskiego / Krańcowa",
    "lines": [
      "13",
      "18",
      "6"
    ]
  },
  {
    "id": 164,
    "point": {
      "latitude": 53.145478,
      "longitude": 23.180942
    },
    "name": "Wasilkowska / Andersa",
    "lines": [
      "100",
      "13",
      "16",
      "3",
      "6",
      "9",
      "N6"
    ]
  },
  {
    "id": 165,
    "point": {
      "latitude": 53.140677,
      "longitude": 23.173008
    },
    "name": "Sienkiewicza/Ryska",
    "lines": [
      "100",
      "13",
      "16",
      "18",
      "22",
      "3",
      "6",
      "9",
      "N6"
    ]
  },
  {
    "id": 166,
    "point": {
      "latitude": 53.136892,
      "longitude": 23.166632
    },
    "name": "Sienkiewicza/Ogrodowa",
    "lines": [
      "100",
      "13",
      "16",
      "18",
      "3",
      "6",
      "9",
      "N6"
    ]
  },
  {
    "id": 167,
    "point": {
      "latitude": 53.129075,
      "longitude": 23.15516
    },
    "name": "Legionowa/Piękna",
    "lines": [
      "104",
      "16",
      "17",
      "19",
      "3",
      "6",
      "N3"
    ]
  },
  {
    "id": 168,
    "point": {
      "latitude": 53.125745,
      "longitude": 23.149715
    },
    "name": "Kaczorowskiego / Cieszyńska",
    "lines": [
      "104",
      "16",
      "17",
      "19",
      "3",
      "6",
      "N3"
    ]
  },
  {
    "id": 169,
    "point": {
      "latitude": 53.124398,
      "longitude": 23.147612
    },
    "name": "Kard.S.Wyszyńskiego/ prez.R.Kaczorowskiego",
    "lines": [
      "27",
      "29"
    ]
  },
  {
    "id": 170,
    "point": {
      "latitude": 53.125368,
      "longitude": 23.145517
    },
    "name": "Kard.S.Wyszyńskiego/Gen.Bema",
    "lines": [
      "27",
      "29"
    ]
  },
  {
    "id": 171,
    "point": {
      "latitude": 53.14888,
      "longitude": 23.156137
    },
    "name": "Tysiąclecia P.P./Stacja Paliw",
    "lines": [
      "15",
      "26",
      "27",
      "N3"
    ]
  },
  {
    "id": 172,
    "point": {
      "latitude": 53.142702,
      "longitude": 23.148658
    },
    "name": "Radzymińska/Sitarska",
    "lines": [
      "15",
      "22",
      "N3"
    ]
  },
  {
    "id": 173,
    "point": {
      "latitude": 53.139476,
      "longitude": 23.150655
    },
    "name": "Boh. Getta/Poleska",
    "lines": [
      "15",
      "N3"
    ]
  },
  {
    "id": 174,
    "point": {
      "latitude": 53.136048,
      "longitude": 23.15386
    },
    "name": "Piłsudskiego/Częstochowska",
    "lines": [
      "1",
      "100",
      "103",
      "106",
      "12",
      "15",
      "18",
      "21",
      "24",
      "9",
      "N3"
    ]
  },
  {
    "id": 175,
    "point": {
      "latitude": 53.134332,
      "longitude": 23.164218
    },
    "name": "Piłsudskiego/Sienkiewicza",
    "lines": [
      "1",
      "103",
      "104",
      "106",
      "12",
      "13",
      "15",
      "19",
      "24",
      "4",
      "5",
      "6",
      "N6"
    ]
  },
  {
    "id": 176,
    "point": {
      "latitude": 53.122842,
      "longitude": 23.214285
    },
    "name": "Baranowicka/Gródecka",
    "lines": [
      "1",
      "15",
      "N4"
    ]
  },
  {
    "id": 177,
    "point": {
      "latitude": 53.12189,
      "longitude": 23.217822
    },
    "name": "Plażowa/Zuchów",
    "lines": [
      "15",
      "N4"
    ]
  },
  {
    "id": 178,
    "point": {
      "latitude": 53.119218,
      "longitude": 23.217623
    },
    "name": "Plażowa/Pozioma",
    "lines": [
      "15",
      "N4"
    ]
  },
  {
    "id": 179,
    "point": {
      "latitude": 53.108337,
      "longitude": 23.21019
    },
    "name": "Proroka Eliasza/W.S.A.P.",
    "lines": [
      "15",
      "N4"
    ]
  },
  {
    "id": 180,
    "point": {
      "latitude": 53.105582,
      "longitude": 23.209965
    },
    "name": "Proroka Eliasza",
    "lines": [
      "15",
      "N4"
    ]
  },
  {
    "id": 181,
    "point": {
      "latitude": 53.101283,
      "longitude": 23.210725
    },
    "name": "Dojlidy Górne/Zalesie",
    "lines": [
      "15",
      "N4"
    ]
  },
  {
    "id": 182,
    "point": {
      "latitude": 53.096052,
      "longitude": 23.210057
    },
    "name": "Dojlidy Górne/Pętla",
    "lines": [
      "15",
      "19",
      "2",
      "N4"
    ]
  },
  {
    "id": 183,
    "point": {
      "latitude": 53.101543,
      "longitude": 23.210747
    },
    "name": "Dojlidy Górne/Zalesie",
    "lines": [
      "15"
    ]
  },
  {
    "id": 184,
    "point": {
      "latitude": 53.107352,
      "longitude": 23.20923
    },
    "name": "Proroka Eliasza",
    "lines": [
      "15"
    ]
  },
  {
    "id": 185,
    "point": {
      "latitude": 53.115408,
      "longitude": 23.21706
    },
    "name": "Plażowa/Dojnowska",
    "lines": [
      "15"
    ]
  },
  {
    "id": 186,
    "point": {
      "latitude": 53.118438,
      "longitude": 23.217662
    },
    "name": "Plażowa/Pozioma",
    "lines": [
      "15",
      "N4"
    ]
  },
  {
    "id": 187,
    "point": {
      "latitude": 53.123118,
      "longitude": 23.216917
    },
    "name": "Baranowicka/Plażowa",
    "lines": [
      "1",
      "15",
      "N4"
    ]
  },
  {
    "id": 188,
    "point": {
      "latitude": 53.135495,
      "longitude": 23.16234
    },
    "name": "Piłsudskiego/Plac Inwalidów",
    "lines": [
      "1",
      "100",
      "103",
      "106",
      "12",
      "15",
      "18",
      "21",
      "24",
      "9",
      "N2"
    ]
  },
  {
    "id": 189,
    "point": {
      "latitude": 53.136225,
      "longitude": 23.153432
    },
    "name": "Piłsudskiego/Waryńskiego",
    "lines": [
      "1",
      "100",
      "103",
      "106",
      "12",
      "15",
      "18",
      "21",
      "24",
      "9"
    ]
  },
  {
    "id": 190,
    "point": {
      "latitude": 53.13684,
      "longitude": 23.152286
    },
    "name": "Boh. Getta/Bank",
    "lines": [
      "100",
      "15"
    ]
  },
  {
    "id": 191,
    "point": {
      "latitude": 53.144155,
      "longitude": 23.149852
    },
    "name": "Radzymińska/Szkoła",
    "lines": [
      "15",
      "22"
    ]
  },
  {
    "id": 192,
    "point": {
      "latitude": 53.091905,
      "longitude": 23.211143
    },
    "name": "Dojlidy Górne/Grabowa",
    "lines": [
      "15",
      "19"
    ]
  },
  {
    "id": 193,
    "point": {
      "latitude": 53.087707,
      "longitude": 23.210392
    },
    "name": "Dojlidy Górne/Brzoskwiniowa",
    "lines": [
      "15",
      "19"
    ]
  },
  {
    "id": 194,
    "point": {
      "latitude": 53.081698,
      "longitude": 23.209195
    },
    "name": "Dojlidy Górne/Ananasowa",
    "lines": [
      "15"
    ]
  },
  {
    "id": 195,
    "point": {
      "latitude": 53.078642,
      "longitude": 23.21162
    },
    "name": "Dojlidy Górne/Kameliowa",
    "lines": [
      "15"
    ]
  },
  {
    "id": 196,
    "point": {
      "latitude": 53.076562,
      "longitude": 23.218578
    },
    "name": "Halicka/Leśnej Jagody",
    "lines": [
      "15"
    ]
  },
  {
    "id": 197,
    "point": {
      "latitude": 53.075627,
      "longitude": 23.224672
    },
    "name": "Halicka/Pętla",
    "lines": [
      "15"
    ]
  },
  {
    "id": 198,
    "point": {
      "latitude": 53.075562,
      "longitude": 23.224855
    },
    "name": "Halicka/Margerytki",
    "lines": [
      "15"
    ]
  },
  {
    "id": 199,
    "point": {
      "latitude": 53.076765,
      "longitude": 23.217495
    },
    "name": "Halicka/Lubczykowa",
    "lines": [
      "15"
    ]
  },
  {
    "id": 200,
    "point": {
      "latitude": 53.079133,
      "longitude": 23.211317
    },
    "name": "Dojlidy Górne/Kameliowa",
    "lines": [
      "15"
    ]
  },
  {
    "id": 201,
    "point": {
      "latitude": 53.082878,
      "longitude": 23.20937
    },
    "name": "Dojlidy Górne/Cytrynowa",
    "lines": [
      "15"
    ]
  },
  {
    "id": 202,
    "point": {
      "latitude": 53.088015,
      "longitude": 23.210493
    },
    "name": "Dojlidy Górne/Brzoskwiniowa",
    "lines": [
      "15",
      "19"
    ]
  },
  {
    "id": 203,
    "point": {
      "latitude": 53.092737,
      "longitude": 23.211265
    },
    "name": "Dojlidy Górne/Grabowa",
    "lines": [
      "15",
      "19"
    ]
  },
  {
    "id": 204,
    "point": {
      "latitude": 53.116494,
      "longitude": 23.129217
    },
    "name": "KPKM Zajezdnia",
    "lines": [
      "102",
      "104",
      "105",
      "107",
      "110",
      "12",
      "17",
      "2",
      "200",
      "201",
      "202",
      "23",
      "24",
      "26",
      "27",
      "3",
      "5",
      "6",
      "8",
      "N1",
      "N5",
      "N6"
    ]
  },
  {
    "id": 205,
    "point": {
      "latitude": 53.099092,
      "longitude": 23.130855
    },
    "name": "Wiadukt/PKP Stadion",
    "lines": [
      "10",
      "104",
      "11",
      "110",
      "23",
      "3"
    ]
  },
  {
    "id": 206,
    "point": {
      "latitude": 53.099897,
      "longitude": 23.133977
    },
    "name": "Wiadukt/Kościół",
    "lines": [
      "10",
      "104",
      "11",
      "110",
      "23",
      "3"
    ]
  },
  {
    "id": 207,
    "point": {
      "latitude": 53.096108,
      "longitude": 23.123565
    },
    "name": "Kleosin/Klasztor",
    "lines": [
      "10",
      "11",
      "110"
    ]
  },
  {
    "id": 208,
    "point": {
      "latitude": 53.091613,
      "longitude": 23.116347
    },
    "name": "Kleosin - Baczyńskiego",
    "lines": [
      "10",
      "110"
    ]
  },
  {
    "id": 209,
    "point": {
      "latitude": 53.086027,
      "longitude": 23.108137
    },
    "name": "Horodniany",
    "lines": [
      "10",
      "110"
    ]
  },
  {
    "id": 210,
    "point": {
      "latitude": 53.082458,
      "longitude": 23.101905
    },
    "name": "Księżyno/Niewodnicka",
    "lines": [
      "10",
      "110"
    ]
  },
  {
    "id": 211,
    "point": {
      "latitude": 53.077045,
      "longitude": 23.103128
    },
    "name": "Księżyno/Krokusowa",
    "lines": [
      "110"
    ]
  },
  {
    "id": 212,
    "point": {
      "latitude": 53.06831,
      "longitude": 23.100687
    },
    "name": "Ignatki",
    "lines": [
      "110"
    ]
  },
  {
    "id": 213,
    "point": {
      "latitude": 53.062132,
      "longitude": 23.094465
    },
    "name": "Koplany/Kolonia",
    "lines": [
      "10",
      "110"
    ]
  },
  {
    "id": 214,
    "point": {
      "latitude": 53.05935,
      "longitude": 23.09708
    },
    "name": "Koplany/Cegielnia",
    "lines": [
      "110"
    ]
  },
  {
    "id": 215,
    "point": {
      "latitude": 53.050527,
      "longitude": 23.110418
    },
    "name": "Brończany",
    "lines": [
      "110"
    ]
  },
  {
    "id": 216,
    "point": {
      "latitude": 53.033358,
      "longitude": 23.12148
    },
    "name": "Lewickie Stacja/Osada",
    "lines": [
      "110"
    ]
  },
  {
    "id": 217,
    "point": {
      "latitude": 53.029872,
      "longitude": 23.126612
    },
    "name": "Lewickie Stacja",
    "lines": [
      "110"
    ]
  },
  {
    "id": 218,
    "point": {
      "latitude": 53.023465,
      "longitude": 23.135515
    },
    "name": "Juchnowiec/Jaśminowa",
    "lines": [
      "110"
    ]
  },
  {
    "id": 219,
    "point": {
      "latitude": 53.018775,
      "longitude": 23.142087
    },
    "name": "Juchnowiec Kościelny",
    "lines": [
      "110"
    ]
  },
  {
    "id": 220,
    "point": {
      "latitude": 53.019047,
      "longitude": 23.14199
    },
    "name": "Juchnowiec Kościelny",
    "lines": [
      "104",
      "110",
      "200",
      "201",
      "202"
    ]
  },
  {
    "id": 221,
    "point": {
      "latitude": 53.023998,
      "longitude": 23.135015
    },
    "name": "Juchnowiec/Jaśminowa",
    "lines": [
      "110"
    ]
  },
  {
    "id": 222,
    "point": {
      "latitude": 53.02985,
      "longitude": 23.126687
    },
    "name": "Lewickie Stacja",
    "lines": [
      "110"
    ]
  },
  {
    "id": 223,
    "point": {
      "latitude": 53.033535,
      "longitude": 23.121322
    },
    "name": "Lewickie Stacja/Osada",
    "lines": [
      "110"
    ]
  },
  {
    "id": 224,
    "point": {
      "latitude": 53.051157,
      "longitude": 23.109815
    },
    "name": "Brończany",
    "lines": [
      "110"
    ]
  },
  {
    "id": 225,
    "point": {
      "latitude": 53.05935,
      "longitude": 23.097063
    },
    "name": "Koplany/Cegielnia",
    "lines": [
      "110"
    ]
  },
  {
    "id": 226,
    "point": {
      "latitude": 53.062965,
      "longitude": 23.094918
    },
    "name": "Koplany/Kolonia",
    "lines": [
      "10",
      "110"
    ]
  },
  {
    "id": 227,
    "point": {
      "latitude": 53.068685,
      "longitude": 23.101005
    },
    "name": "Ignatki",
    "lines": [
      "110"
    ]
  },
  {
    "id": 228,
    "point": {
      "latitude": 53.076162,
      "longitude": 23.103907
    },
    "name": "Księżyno/Krokusowa",
    "lines": [
      "110"
    ]
  },
  {
    "id": 229,
    "point": {
      "latitude": 53.081728,
      "longitude": 23.10079
    },
    "name": "Księżyno/Kościół",
    "lines": [
      "10",
      "110"
    ]
  },
  {
    "id": 230,
    "point": {
      "latitude": 53.087058,
      "longitude": 23.110193
    },
    "name": "Horodniany",
    "lines": [
      "10",
      "110"
    ]
  },
  {
    "id": 231,
    "point": {
      "latitude": 53.092421,
      "longitude": 23.117896
    },
    "name": "Kleosin - Pętla",
    "lines": [
      "10",
      "11",
      "110"
    ]
  },
  {
    "id": 232,
    "point": {
      "latitude": 53.096935,
      "longitude": 23.125887
    },
    "name": "Wiadukt/Politechnika Białostocka",
    "lines": [
      "10",
      "11",
      "110"
    ]
  },
  {
    "id": 233,
    "point": {
      "latitude": 53.133272,
      "longitude": 23.138598
    },
    "name": "Dworzec PKS",
    "lines": [
      "100",
      "107",
      "19",
      "22",
      "23",
      "27",
      "29",
      "N2"
    ]
  },
  {
    "id": 234,
    "point": {
      "latitude": 53.13816,
      "longitude": 23.14404
    },
    "name": "Poleska/Pogotowie",
    "lines": [
      "22",
      "27"
    ]
  },
  {
    "id": 235,
    "point": {
      "latitude": 53.142595,
      "longitude": 23.161522
    },
    "name": "Poleska/Szkoła",
    "lines": [
      "22"
    ]
  },
  {
    "id": 236,
    "point": {
      "latitude": 53.141282,
      "longitude": 23.16874
    },
    "name": "Jagienki/Ciepła",
    "lines": [
      "22"
    ]
  },
  {
    "id": 237,
    "point": {
      "latitude": 53.139717,
      "longitude": 23.183498
    },
    "name": "Towarowa/Kraszewskiego",
    "lines": [
      "22"
    ]
  },
  {
    "id": 238,
    "point": {
      "latitude": 53.13841,
      "longitude": 23.187273
    },
    "name": "Towarowa/Dw.Fabryczny",
    "lines": [
      "22"
    ]
  },
  {
    "id": 239,
    "point": {
      "latitude": 53.137145,
      "longitude": 23.190772
    },
    "name": "Towarowa/Parking",
    "lines": [
      "22",
      "5",
      "8"
    ]
  },
  {
    "id": 240,
    "point": {
      "latitude": 53.13487,
      "longitude": 23.19538
    },
    "name": "Piastowska/Os. Piasta",
    "lines": [
      "12",
      "22",
      "29",
      "5",
      "8",
      "N5"
    ]
  },
  {
    "id": 241,
    "point": {
      "latitude": 53.131972,
      "longitude": 23.192502
    },
    "name": "Piastowska/Mieszka I",
    "lines": [
      "12",
      "22",
      "29",
      "8"
    ]
  },
  {
    "id": 242,
    "point": {
      "latitude": 53.128878,
      "longitude": 23.187967
    },
    "name": "Piastowska/Chrobrego",
    "lines": [
      "12",
      "22",
      "29",
      "8"
    ]
  },
  {
    "id": 243,
    "point": {
      "latitude": 53.117832,
      "longitude": 23.188885
    },
    "name": "Ciołkowskiego / Murarska",
    "lines": [
      "13",
      "22",
      "N4"
    ]
  },
  {
    "id": 244,
    "point": {
      "latitude": 53.115595,
      "longitude": 23.182297
    },
    "name": "Ciołkowskiego / Śląska",
    "lines": [
      "22",
      "N4"
    ]
  },
  {
    "id": 245,
    "point": {
      "latitude": 53.114058,
      "longitude": 23.177553
    },
    "name": "Ciołkowskiego / Mickiewicza",
    "lines": [
      "22",
      "7"
    ]
  },
  {
    "id": 246,
    "point": {
      "latitude": 53.108038,
      "longitude": 23.159672
    },
    "name": "Ciołkowskiego / Instytut Meteorologii",
    "lines": [
      "22",
      "7"
    ]
  },
  {
    "id": 247,
    "point": {
      "latitude": 53.136225,
      "longitude": 23.145606
    },
    "name": "Artyleryjska",
    "lines": [
      "107",
      "19",
      "23",
      "29",
      "N2"
    ]
  },
  {
    "id": 248,
    "point": {
      "latitude": 53.105578,
      "longitude": 23.152839
    },
    "name": "Stadion Miejski",
    "lines": [
      "22",
      "7"
    ]
  },
  {
    "id": 249,
    "point": {
      "latitude": 53.108392,
      "longitude": 23.161187
    },
    "name": "Ciołkowskiego / Instytut Meteorologii",
    "lines": [
      "22",
      "7"
    ]
  },
  {
    "id": 250,
    "point": {
      "latitude": 53.113698,
      "longitude": 23.177088
    },
    "name": "Ciołkowskiego / Mickiewicza",
    "lines": [
      "22",
      "7"
    ]
  },
  {
    "id": 251,
    "point": {
      "latitude": 53.114475,
      "longitude": 23.179315
    },
    "name": "Ciołkowskiego / Śląska",
    "lines": [
      "22",
      "N4"
    ]
  },
  {
    "id": 252,
    "point": {
      "latitude": 53.117688,
      "longitude": 23.188648
    },
    "name": "Niedźwiedzia / Kościół",
    "lines": [
      "13",
      "22",
      "N4"
    ]
  },
  {
    "id": 253,
    "point": {
      "latitude": 53.126047,
      "longitude": 23.183545
    },
    "name": "Piastowska/Nowowarszawska",
    "lines": [
      "12",
      "2",
      "22",
      "29",
      "8"
    ]
  },
  {
    "id": 254,
    "point": {
      "latitude": 53.12963,
      "longitude": 23.19039
    },
    "name": "Piastowska/Chrobrego",
    "lines": [
      "12",
      "22",
      "29",
      "8"
    ]
  },
  {
    "id": 255,
    "point": {
      "latitude": 53.133277,
      "longitude": 23.194305
    },
    "name": "Piastowska/Kościół",
    "lines": [
      "12",
      "22",
      "28",
      "29",
      "5",
      "8",
      "N5"
    ]
  },
  {
    "id": 256,
    "point": {
      "latitude": 53.135772,
      "longitude": 23.19515
    },
    "name": "Towarowa/Piastowska",
    "lines": [
      "22",
      "5",
      "8"
    ]
  },
  {
    "id": 257,
    "point": {
      "latitude": 53.136733,
      "longitude": 23.192543
    },
    "name": "Towarowa/Garaże",
    "lines": [
      "22",
      "5",
      "8"
    ]
  },
  {
    "id": 258,
    "point": {
      "latitude": 53.13908,
      "longitude": 23.185647
    },
    "name": "Towarowa/Daleka",
    "lines": [
      "22"
    ]
  },
  {
    "id": 259,
    "point": {
      "latitude": 53.140485,
      "longitude": 23.181572
    },
    "name": "Towarowa/Kraszewskiego",
    "lines": [
      "22"
    ]
  },
  {
    "id": 260,
    "point": {
      "latitude": 53.141605,
      "longitude": 23.168262
    },
    "name": "Jagienki/Wąska",
    "lines": [
      "22",
      "N3"
    ]
  },
  {
    "id": 261,
    "point": {
      "latitude": 53.143503,
      "longitude": 23.165273
    },
    "name": "Poleska/Jagienki",
    "lines": [
      "22",
      "N3"
    ]
  },
  {
    "id": 262,
    "point": {
      "latitude": 53.142022,
      "longitude": 23.159308
    },
    "name": "Poleska/Wiadukt",
    "lines": [
      "22",
      "N3"
    ]
  },
  {
    "id": 263,
    "point": {
      "latitude": 53.139753,
      "longitude": 23.149557
    },
    "name": "Poleska/Sitarska",
    "lines": [
      "100",
      "22",
      "27"
    ]
  },
  {
    "id": 264,
    "point": {
      "latitude": 53.138208,
      "longitude": 23.143815
    },
    "name": "Poleska/Pogotowie",
    "lines": [
      "100",
      "22",
      "27"
    ]
  },
  {
    "id": 265,
    "point": {
      "latitude": 53.134417,
      "longitude": 23.139365
    },
    "name": "Poleska/Św.Rocha",
    "lines": [
      "100",
      "107",
      "19",
      "22",
      "23",
      "27",
      "29",
      "N2"
    ]
  },
  {
    "id": 266,
    "point": {
      "latitude": 53.136037,
      "longitude": 23.147562
    },
    "name": "Piłsudskiego/Botaniczna",
    "lines": [
      "1",
      "103",
      "106",
      "12",
      "18",
      "21",
      "24",
      "9"
    ]
  },
  {
    "id": 267,
    "point": {
      "latitude": 53.135844,
      "longitude": 23.144181
    },
    "name": "Dąbrowskiego P.K.",
    "lines": [
      "1",
      "10",
      "103",
      "106",
      "107",
      "12",
      "14",
      "18",
      "19",
      "2",
      "21",
      "23",
      "24",
      "29",
      "4",
      "5",
      "7",
      "9",
      "N1",
      "N2"
    ]
  },
  {
    "id": 268,
    "point": {
      "latitude": 53.13565,
      "longitude": 23.136632
    },
    "name": "Dworzec PKP",
    "lines": [
      "1",
      "103",
      "11",
      "18",
      "2",
      "21",
      "29",
      "4"
    ]
  },
  {
    "id": 269,
    "point": {
      "latitude": 53.136243,
      "longitude": 23.127725
    },
    "name": "Zwycięstwa/Prowiantowa",
    "lines": [
      "1",
      "103",
      "11",
      "18",
      "2",
      "21",
      "29",
      "4"
    ]
  },
  {
    "id": 270,
    "point": {
      "latitude": 53.136212,
      "longitude": 23.120735
    },
    "name": "Hetmańska/Gruntowa",
    "lines": [
      "1",
      "11",
      "12",
      "14",
      "2",
      "21",
      "23",
      "N2"
    ]
  },
  {
    "id": 271,
    "point": {
      "latitude": 53.132045,
      "longitude": 23.119057
    },
    "name": "Hetmańska/Promienna",
    "lines": [
      "1",
      "11",
      "12",
      "14",
      "2",
      "21",
      "23",
      "N2"
    ]
  },
  {
    "id": 272,
    "point": {
      "latitude": 53.131525,
      "longitude": 23.111438
    },
    "name": "Marczukowska/Piekarnia",
    "lines": [
      "1",
      "14",
      "17",
      "23",
      "N2"
    ]
  },
  {
    "id": 273,
    "point": {
      "latitude": 53.132272,
      "longitude": 23.10521
    },
    "name": "Witosa/Skrajna",
    "lines": [
      "1",
      "14",
      "17",
      "23",
      "N2"
    ]
  },
  {
    "id": 274,
    "point": {
      "latitude": 53.132185,
      "longitude": 23.101232
    },
    "name": "Witosa/Przychodnia",
    "lines": [
      "1",
      "14",
      "17",
      "23",
      "N2"
    ]
  },
  {
    "id": 275,
    "point": {
      "latitude": 53.133836,
      "longitude": 23.101308
    },
    "name": "Sikorskiego P.K.",
    "lines": [
      "1",
      "107",
      "17",
      "25",
      "28"
    ]
  },
  {
    "id": 276,
    "point": {
      "latitude": 53.134308,
      "longitude": 23.101888
    },
    "name": "Sikorskiego / Witosa",
    "lines": [
      "1",
      "107",
      "17",
      "25",
      "28"
    ]
  },
  {
    "id": 277,
    "point": {
      "latitude": 53.134942,
      "longitude": 23.101802
    },
    "name": "Sikorskiego",
    "lines": [
      "1",
      "17",
      "28"
    ]
  },
  {
    "id": 278,
    "point": {
      "latitude": 53.133864,
      "longitude": 23.100989
    },
    "name": "Sikorskiego P.K.",
    "lines": [
      "1",
      "107",
      "17",
      "25",
      "28"
    ]
  },
  {
    "id": 279,
    "point": {
      "latitude": 53.132025,
      "longitude": 23.10175
    },
    "name": "Witosa/Pawilon",
    "lines": [
      "1",
      "14",
      "17",
      "23",
      "N2"
    ]
  },
  {
    "id": 280,
    "point": {
      "latitude": 53.132382,
      "longitude": 23.107028
    },
    "name": "Witosa/Osiedle Słoneczny Stok",
    "lines": [
      "1",
      "14",
      "17",
      "23",
      "N2"
    ]
  },
  {
    "id": 281,
    "point": {
      "latitude": 53.130607,
      "longitude": 23.112923
    },
    "name": "Marczukowska/Stroma",
    "lines": [
      "1",
      "14",
      "17",
      "23",
      "N2"
    ]
  },
  {
    "id": 282,
    "point": {
      "latitude": 53.129807,
      "longitude": 23.11853
    },
    "name": "Hetmańska/Marczukowska",
    "lines": [
      "1",
      "11",
      "12",
      "14",
      "2",
      "21",
      "23",
      "N2"
    ]
  },
  {
    "id": 283,
    "point": {
      "latitude": 53.13426,
      "longitude": 23.120227
    },
    "name": "Hetmańska/Promienna",
    "lines": [
      "1",
      "11",
      "12",
      "14",
      "2",
      "21",
      "23",
      "N2"
    ]
  },
  {
    "id": 284,
    "point": {
      "latitude": 53.137157,
      "longitude": 23.122328
    },
    "name": "Zwycięstwa/Hetmańska",
    "lines": [
      "1",
      "10",
      "103",
      "107",
      "11",
      "12",
      "14",
      "18",
      "2",
      "21",
      "24",
      "29",
      "4",
      "N2"
    ]
  },
  {
    "id": 285,
    "point": {
      "latitude": 53.135798,
      "longitude": 23.130158
    },
    "name": "Zwycięstwa/W.S.E.",
    "lines": [
      "1",
      "10",
      "103",
      "11",
      "18",
      "2",
      "21",
      "29",
      "4",
      "N2"
    ]
  },
  {
    "id": 286,
    "point": {
      "latitude": 53.135198,
      "longitude": 23.136212
    },
    "name": "Dworzec PKP",
    "lines": [
      "1",
      "103",
      "106",
      "18",
      "29"
    ]
  },
  {
    "id": 287,
    "point": {
      "latitude": 53.135711,
      "longitude": 23.144139
    },
    "name": "Dąbrowskiego P.K.",
    "lines": [
      "1",
      "10",
      "100",
      "103",
      "106",
      "12",
      "14",
      "18",
      "2",
      "21",
      "24",
      "4",
      "5",
      "7",
      "9",
      "N1"
    ]
  },
  {
    "id": 288,
    "point": {
      "latitude": 53.135653,
      "longitude": 23.146942
    },
    "name": "Piłsudskiego/Pl.Niepodległości",
    "lines": [
      "1",
      "100",
      "103",
      "106",
      "12",
      "18",
      "21",
      "24",
      "7",
      "9"
    ]
  },
  {
    "id": 289,
    "point": {
      "latitude": 53.123155,
      "longitude": 23.219113
    },
    "name": "Baranowicka/Plażowa",
    "lines": [
      "1"
    ]
  },
  {
    "id": 290,
    "point": {
      "latitude": 53.123478,
      "longitude": 23.223007
    },
    "name": "Baranowicka/Wczasowa",
    "lines": [
      "1"
    ]
  },
  {
    "id": 291,
    "point": {
      "latitude": 53.124678,
      "longitude": 23.228098
    },
    "name": null,
    "lines": null
  },
  {
    "id": 292,
    "point": {
      "latitude": 53.124138,
      "longitude": 23.227005
    },
    "name": "Zaścianki",
    "lines": [
      "1"
    ]
  },
  {
    "id": 293,
    "point": {
      "latitude": 53.1234,
      "longitude": 23.220893
    },
    "name": "Baranowicka/Wczasowa",
    "lines": [
      "1"
    ]
  },
  {
    "id": 294,
    "point": {
      "latitude": 53.124568,
      "longitude": 23.228618
    },
    "name": "Zaścianki",
    "lines": [
      "1"
    ]
  },
  {
    "id": 295,
    "point": {
      "latitude": 53.125753,
      "longitude": 23.23163
    },
    "name": "Szosa Baranowicka / Sulika",
    "lines": [
      "1"
    ]
  },
  {
    "id": 296,
    "point": {
      "latitude": 53.12553,
      "longitude": 23.24205
    },
    "name": "Zaścianki/ Cerkiew",
    "lines": [
      "1"
    ]
  },
  {
    "id": 297,
    "point": {
      "latitude": 53.125253,
      "longitude": 23.246545
    },
    "name": "Zaścianki/Usługowa",
    "lines": [
      "1"
    ]
  },
  {
    "id": 298,
    "point": {
      "latitude": 53.125213,
      "longitude": 23.254418
    },
    "name": "Zaścianki/Stacja Paliw",
    "lines": [
      "1"
    ]
  },
  {
    "id": 299,
    "point": {
      "latitude": 53.125243,
      "longitude": 23.260087
    },
    "name": "Sobolewo/Rondo",
    "lines": [
      "1"
    ]
  },
  {
    "id": 300,
    "point": {
      "latitude": 53.125325,
      "longitude": 23.268535
    },
    "name": "Sobolewo/Bociania",
    "lines": [
      "1"
    ]
  },
  {
    "id": 301,
    "point": {
      "latitude": 53.125383,
      "longitude": 23.282365
    },
    "name": "Sobolewo/Niedzwiedzia",
    "lines": [
      "1"
    ]
  },
  {
    "id": 302,
    "point": {
      "latitude": 53.125412,
      "longitude": 23.285673
    },
    "name": "Grabówka - Pomnik",
    "lines": [
      "1"
    ]
  },
  {
    "id": 303,
    "point": {
      "latitude": 53.125135,
      "longitude": 23.286435
    },
    "name": "Grabówka/Mniszkowa",
    "lines": [
      "1"
    ]
  },
  {
    "id": 304,
    "point": {
      "latitude": 53.12543,
      "longitude": 23.27857
    },
    "name": "Grabówka/Macierzankowa",
    "lines": [
      "1"
    ]
  },
  {
    "id": 305,
    "point": {
      "latitude": 53.125363,
      "longitude": 23.266265
    },
    "name": "Grabówka/Jeżynowa",
    "lines": [
      "1"
    ]
  },
  {
    "id": 306,
    "point": {
      "latitude": 53.125328,
      "longitude": 23.257952
    },
    "name": "Grabówka/Rondo",
    "lines": [
      "1"
    ]
  },
  {
    "id": 307,
    "point": {
      "latitude": 53.12532,
      "longitude": 23.252517
    },
    "name": "Zaścianki/Stacja Paliw",
    "lines": [
      "1"
    ]
  },
  {
    "id": 308,
    "point": {
      "latitude": 53.125612,
      "longitude": 23.243815
    },
    "name": "Zaścianki/Afrykańska",
    "lines": [
      "1"
    ]
  },
  {
    "id": 309,
    "point": {
      "latitude": 53.125942,
      "longitude": 23.238192
    },
    "name": "Zaścianki/ Cerkiew",
    "lines": [
      "1"
    ]
  },
  {
    "id": 310,
    "point": {
      "latitude": 53.126543,
      "longitude": 23.258352
    },
    "name": "Grabówka/Szosa Baranowicka",
    "lines": [
      "1",
      "105"
    ]
  },
  {
    "id": 311,
    "point": {
      "latitude": 53.129293,
      "longitude": 23.257778
    },
    "name": "Grabówka/Leszczynowa",
    "lines": [
      "1",
      "105"
    ]
  },
  {
    "id": 312,
    "point": {
      "latitude": 53.131468,
      "longitude": 23.257787
    },
    "name": "Grabówka/Orzechowa",
    "lines": [
      "1",
      "105"
    ]
  },
  {
    "id": 313,
    "point": {
      "latitude": 53.134798,
      "longitude": 23.257858
    },
    "name": "Grabówka/Malinowa",
    "lines": [
      "1",
      "105"
    ]
  },
  {
    "id": 314,
    "point": {
      "latitude": 53.136072,
      "longitude": 23.257878
    },
    "name": "Grabówka/Kościół Pętla",
    "lines": [
      "1"
    ]
  },
  {
    "id": 315,
    "point": {
      "latitude": 53.135823,
      "longitude": 23.25747
    },
    "name": "Grabówka/Kościół",
    "lines": [
      "1",
      "105"
    ]
  },
  {
    "id": 316,
    "point": {
      "latitude": 53.132452,
      "longitude": 23.257872
    },
    "name": "Grabówka/Jodłowa",
    "lines": [
      "1",
      "105"
    ]
  },
  {
    "id": 317,
    "point": {
      "latitude": 53.130685,
      "longitude": 23.257768
    },
    "name": "Grabówka/Orzechowa",
    "lines": [
      "1",
      "105"
    ]
  },
  {
    "id": 318,
    "point": {
      "latitude": 53.12629,
      "longitude": 23.258408
    },
    "name": "Grabówka/Szosa Baranowicka",
    "lines": [
      "1",
      "105"
    ]
  },
  {
    "id": 319,
    "point": {
      "latitude": 53.113505,
      "longitude": 23.128993
    },
    "name": "Transportowa/Składowa",
    "lines": [
      "27"
    ]
  },
  {
    "id": 320,
    "point": {
      "latitude": 53.112462,
      "longitude": 23.125395
    },
    "name": "Transportowa/Straż Pożarna",
    "lines": [
      "27"
    ]
  },
  {
    "id": 321,
    "point": {
      "latitude": 53.11094,
      "longitude": 23.11861
    },
    "name": "Transportowa/Ekologiczna",
    "lines": [
      "27"
    ]
  },
  {
    "id": 322,
    "point": {
      "latitude": 53.109098,
      "longitude": 23.115307
    },
    "name": "Transportowa/Pętla",
    "lines": [
      "16",
      "2",
      "26",
      "27",
      "N3"
    ]
  },
  {
    "id": 323,
    "point": {
      "latitude": 53.111062,
      "longitude": 23.120052
    },
    "name": "Transportowa/Ekologiczna",
    "lines": [
      "27",
      "N3"
    ]
  },
  {
    "id": 324,
    "point": {
      "latitude": 53.112688,
      "longitude": 23.126505
    },
    "name": "Transportowa/Składowa",
    "lines": [
      "27",
      "N3"
    ]
  },
  {
    "id": 325,
    "point": {
      "latitude": 53.113853,
      "longitude": 23.130802
    },
    "name": "Pogodna/Żeromskiego",
    "lines": [
      "11",
      "17",
      "27",
      "8",
      "N3"
    ]
  },
  {
    "id": 326,
    "point": {
      "latitude": 53.116498,
      "longitude": 23.140077
    },
    "name": "Pogodna/Garaże",
    "lines": [
      "11",
      "17",
      "27",
      "8",
      "N3"
    ]
  },
  {
    "id": 327,
    "point": {
      "latitude": 53.118253,
      "longitude": 23.14441
    },
    "name": "Wiejska/Pogodna",
    "lines": [
      "10",
      "104",
      "16",
      "17",
      "23",
      "26",
      "27",
      "3",
      "8",
      "N3"
    ]
  },
  {
    "id": 328,
    "point": {
      "latitude": 53.121253,
      "longitude": 23.146957
    },
    "name": "Kaczorowskiego / Zwierzyniecka",
    "lines": [
      "104",
      "120",
      "16",
      "17",
      "19",
      "26",
      "27",
      "29",
      "3",
      "6",
      "N3"
    ]
  },
  {
    "id": 329,
    "point": {
      "latitude": 53.139998,
      "longitude": 23.151097
    },
    "name": "Poleska/Czysta",
    "lines": [
      "27"
    ]
  },
  {
    "id": 330,
    "point": {
      "latitude": 53.141222,
      "longitude": 23.157287
    },
    "name": "Poleska/Jurowiecka",
    "lines": [
      "27"
    ]
  },
  {
    "id": 331,
    "point": {
      "latitude": 53.150725,
      "longitude": 23.158455
    },
    "name": "Kombatantów",
    "lines": [
      "25",
      "27"
    ]
  },
  {
    "id": 332,
    "point": {
      "latitude": 53.149773,
      "longitude": 23.165448
    },
    "name": "1 Armii W.P./Bank",
    "lines": [
      "25",
      "27"
    ]
  },
  {
    "id": 333,
    "point": {
      "latitude": 53.148087,
      "longitude": 23.163697
    },
    "name": "1 Armii W.P./Kombatantów",
    "lines": [
      "25",
      "27"
    ]
  },
  {
    "id": 334,
    "point": {
      "latitude": 53.145705,
      "longitude": 23.158965
    },
    "name": "1 Armii W.P./Tysiąclecia P.P.",
    "lines": [
      "25",
      "27"
    ]
  },
  {
    "id": 335,
    "point": {
      "latitude": 53.123667,
      "longitude": 23.148258
    },
    "name": "Kaczorowskiego / Wyszyńskiego",
    "lines": [
      "104",
      "120",
      "16",
      "17",
      "19",
      "26",
      "27",
      "29",
      "3",
      "6",
      "N3"
    ]
  },
  {
    "id": 336,
    "point": {
      "latitude": 53.120235,
      "longitude": 23.144973
    },
    "name": "Wiejska/Kopernika",
    "lines": [
      "10",
      "104",
      "120",
      "16",
      "17",
      "23",
      "26",
      "27",
      "3",
      "8",
      "N3"
    ]
  },
  {
    "id": 337,
    "point": {
      "latitude": 53.117563,
      "longitude": 23.143395
    },
    "name": "Pogodna/Wiejska",
    "lines": [
      "11",
      "17",
      "27",
      "8"
    ]
  },
  {
    "id": 338,
    "point": {
      "latitude": 53.115877,
      "longitude": 23.137393
    },
    "name": "Pogodna/Gen.J.Bema",
    "lines": [
      "11",
      "17",
      "27",
      "8"
    ]
  },
  {
    "id": 339,
    "point": {
      "latitude": 53.133282,
      "longitude": 23.15304
    },
    "name": "Lipowa/Nowy Świat",
    "lines": [
      "10",
      "14",
      "2",
      "4",
      "5",
      "7",
      "N1"
    ]
  },
  {
    "id": 340,
    "point": {
      "latitude": 53.134983,
      "longitude": 23.146577
    },
    "name": "Plac Niepodległości/Kościół Św.Rocha",
    "lines": [
      "10",
      "14",
      "2",
      "4",
      "5",
      "7",
      "N1"
    ]
  },
  {
    "id": 341,
    "point": {
      "latitude": 53.141213,
      "longitude": 23.137112
    },
    "name": "Antoniukowska/Owsiana",
    "lines": [
      "106",
      "11",
      "19",
      "23",
      "5",
      "7",
      "9",
      "N1"
    ]
  },
  {
    "id": 342,
    "point": {
      "latitude": 53.142885,
      "longitude": 23.134738
    },
    "name": "Antoniukowska/Narewska",
    "lines": [
      "106",
      "11",
      "19",
      "23",
      "5",
      "7",
      "9",
      "N1"
    ]
  },
  {
    "id": 343,
    "point": {
      "latitude": 53.144698,
      "longitude": 23.133572
    },
    "name": "Świętokorzyska/Antoniukowska",
    "lines": [
      "29",
      "N1"
    ]
  },
  {
    "id": 344,
    "point": {
      "latitude": 53.147738,
      "longitude": 23.137258
    },
    "name": "Świętokrzyska/Ogród działkowy 1",
    "lines": [
      "29",
      "N1"
    ]
  },
  {
    "id": 345,
    "point": {
      "latitude": 53.151362,
      "longitude": 23.138054
    },
    "name": "Świętokrzyska/Ogród działkowy 2",
    "lines": [
      "29",
      "N1"
    ]
  },
  {
    "id": 346,
    "point": {
      "latitude": 53.154232,
      "longitude": 23.133782
    },
    "name": "Berlinga/Dziesięciny",
    "lines": [
      "11",
      "16",
      "25",
      "29",
      "5",
      "N1"
    ]
  },
  {
    "id": 347,
    "point": {
      "latitude": 53.154418,
      "longitude": 23.127077
    },
    "name": "Berlinga/Palmowa",
    "lines": [
      "11",
      "16",
      "25",
      "29",
      "5",
      "N1"
    ]
  },
  {
    "id": 348,
    "point": {
      "latitude": 53.150838,
      "longitude": 23.122882
    },
    "name": "Berlinga/Gajowa",
    "lines": [
      "11",
      "19",
      "25",
      "5",
      "N1"
    ]
  },
  {
    "id": 349,
    "point": {
      "latitude": 53.147605,
      "longitude": 23.116178
    },
    "name": "Konst.3 Maja/Cmentarz Św. Rocha",
    "lines": [
      "18",
      "25",
      "7",
      "9",
      "N1"
    ]
  },
  {
    "id": 350,
    "point": {
      "latitude": 53.144595,
      "longitude": 23.111748
    },
    "name": "Konst.3 Maja/Wysoki Stoczek",
    "lines": [
      "18",
      "25",
      "7",
      "9",
      "N1"
    ]
  },
  {
    "id": 351,
    "point": {
      "latitude": 53.144205,
      "longitude": 23.106978
    },
    "name": "Swobodna",
    "lines": [
      "17",
      "18",
      "24",
      "7",
      "9",
      "N1"
    ]
  },
  {
    "id": 352,
    "point": {
      "latitude": 53.144978,
      "longitude": 23.100473
    },
    "name": "Kołłątaja/Dworska",
    "lines": [
      "17",
      "24",
      "7",
      "N1"
    ]
  },
  {
    "id": 353,
    "point": {
      "latitude": 53.148213,
      "longitude": 23.091402
    },
    "name": "Kołłątaja/Bacieczki",
    "lines": [
      "17",
      "24",
      "7",
      "N1"
    ]
  },
  {
    "id": 354,
    "point": {
      "latitude": 53.151138,
      "longitude": 23.088423
    },
    "name": "K.E.N./Kołłątaja",
    "lines": [
      "17",
      "18",
      "24",
      "N1"
    ]
  },
  {
    "id": 355,
    "point": {
      "latitude": 53.150485,
      "longitude": 23.084835
    },
    "name": "K.E.N./Pietkuna",
    "lines": [
      "17",
      "18",
      "24",
      "N1"
    ]
  },
  {
    "id": 356,
    "point": {
      "latitude": 53.14813,
      "longitude": 23.088542
    },
    "name": "Herberta/Pętla",
    "lines": [
      "17",
      "18",
      "24",
      "N1"
    ]
  },
  {
    "id": 357,
    "point": {
      "latitude": 53.147127,
      "longitude": 23.092552
    },
    "name": "Kołłątaja/Bacieczki",
    "lines": [
      "17",
      "24",
      "7",
      "N1"
    ]
  },
  {
    "id": 358,
    "point": {
      "latitude": 53.144607,
      "longitude": 23.102545
    },
    "name": "Kołłątaja/Dworska",
    "lines": [
      "17",
      "24",
      "7",
      "N1"
    ]
  },
  {
    "id": 359,
    "point": {
      "latitude": 53.144017,
      "longitude": 23.106763
    },
    "name": "Swobodna/Wysoki Stoczek",
    "lines": [
      "17",
      "18",
      "24",
      "7",
      "9",
      "N1"
    ]
  },
  {
    "id": 360,
    "point": {
      "latitude": 53.143055,
      "longitude": 23.110432
    },
    "name": "Konst.3 Maja/Rzemieślnicza",
    "lines": [
      "18",
      "25",
      "7",
      "9",
      "N1"
    ]
  },
  {
    "id": 361,
    "point": {
      "latitude": 53.145472,
      "longitude": 23.113507
    },
    "name": "Konst.3 Maja/Studzienna",
    "lines": [
      "18",
      "25",
      "7",
      "9",
      "N1"
    ]
  },
  {
    "id": 362,
    "point": {
      "latitude": 53.148665,
      "longitude": 23.11908
    },
    "name": "Berlinga/Kościół",
    "lines": [
      "11",
      "19",
      "25",
      "5",
      "N1"
    ]
  },
  {
    "id": 363,
    "point": {
      "latitude": 53.152123,
      "longitude": 23.125048
    },
    "name": "Berlinga/Brzozowa",
    "lines": [
      "11",
      "16",
      "25",
      "29",
      "5",
      "N1"
    ]
  },
  {
    "id": 364,
    "point": {
      "latitude": 53.155333,
      "longitude": 23.128698
    },
    "name": "Berlinga/Parking",
    "lines": [
      "11",
      "16",
      "25",
      "29",
      "5",
      "N1"
    ]
  },
  {
    "id": 365,
    "point": {
      "latitude": 53.153655,
      "longitude": 23.133888
    },
    "name": "Berlinga/Dziesięciny Pętla",
    "lines": [
      "11",
      "16",
      "25",
      "29",
      "5",
      "N1"
    ]
  },
  {
    "id": 366,
    "point": {
      "latitude": 53.150556,
      "longitude": 23.137554
    },
    "name": "Świętokrzyska/Berlinga",
    "lines": [
      "29",
      "N1"
    ]
  },
  {
    "id": 367,
    "point": {
      "latitude": 53.146807,
      "longitude": 23.135891
    },
    "name": "Świętokrzyska/Kaplica",
    "lines": [
      "29",
      "N1"
    ]
  },
  {
    "id": 368,
    "point": {
      "latitude": 53.143127,
      "longitude": 23.133978
    },
    "name": "Antoniukowska/Wierzbowa",
    "lines": [
      "106",
      "11",
      "19",
      "23",
      "5",
      "7",
      "9",
      "N1"
    ]
  },
  {
    "id": 369,
    "point": {
      "latitude": 53.140238,
      "longitude": 23.138163
    },
    "name": "Antoniukowska/Knyszyńska",
    "lines": [
      "106",
      "11",
      "19",
      "23",
      "5",
      "7",
      "9",
      "N1"
    ]
  },
  {
    "id": 370,
    "point": {
      "latitude": 53.133954,
      "longitude": 23.149067
    },
    "name": "Lipowa/Św. Rocha",
    "lines": [
      "10",
      "14",
      "2",
      "4",
      "5",
      "N1"
    ]
  },
  {
    "id": 371,
    "point": {
      "latitude": 53.118085,
      "longitude": 23.103915
    },
    "name": "Zielone Wzgórza",
    "lines": [
      "107",
      "21",
      "23",
      "25",
      "N2"
    ]
  },
  {
    "id": 372,
    "point": {
      "latitude": 53.121105,
      "longitude": 23.099838
    },
    "name": "Zielonogórska/Konwaliowa",
    "lines": [
      "107",
      "21",
      "23",
      "28",
      "N2"
    ]
  },
  {
    "id": 373,
    "point": {
      "latitude": 53.124113,
      "longitude": 23.096653
    },
    "name": "Wrocławska/Zielonogórska",
    "lines": [
      "107",
      "21",
      "23",
      "25",
      "28",
      "8",
      "N2"
    ]
  },
  {
    "id": 374,
    "point": {
      "latitude": 53.128818,
      "longitude": 23.098432
    },
    "name": "Sikorskiego / Upalna",
    "lines": [
      "107",
      "14",
      "23",
      "25",
      "28",
      "N2"
    ]
  },
  {
    "id": 375,
    "point": {
      "latitude": 53.131013,
      "longitude": 23.099495
    },
    "name": "Sikorskiego / Cerkiew",
    "lines": [
      "107",
      "14",
      "23",
      "25",
      "28",
      "N2"
    ]
  },
  {
    "id": 376,
    "point": {
      "latitude": 53.13483,
      "longitude": 23.135543
    },
    "name": "Dworzec PKP",
    "lines": [
      "10",
      "11",
      "14",
      "2",
      "21",
      "4",
      "N2"
    ]
  },
  {
    "id": 377,
    "point": {
      "latitude": 53.135427,
      "longitude": 23.151883
    },
    "name": "Częstochowska",
    "lines": [
      "7",
      "N2"
    ]
  },
  {
    "id": 378,
    "point": {
      "latitude": 53.13913,
      "longitude": 23.133603
    },
    "name": "al.Solidarności/Broniewskiego",
    "lines": [
      "10",
      "107",
      "12",
      "14",
      "24",
      "N2"
    ]
  },
  {
    "id": 379,
    "point": {
      "latitude": 53.138247,
      "longitude": 23.125973
    },
    "name": "al.Solidarności/Tuwima",
    "lines": [
      "10",
      "107",
      "12",
      "14",
      "24",
      "N2"
    ]
  },
  {
    "id": 380,
    "point": {
      "latitude": 53.129043,
      "longitude": 23.098113
    },
    "name": "Sikorskiego / Bat. Chł.",
    "lines": [
      "107",
      "14",
      "23",
      "25",
      "28",
      "N2"
    ]
  },
  {
    "id": 381,
    "point": {
      "latitude": 53.127262,
      "longitude": 23.096628
    },
    "name": "Popiełuszki / Sikorskiego",
    "lines": [
      "12",
      "14",
      "N2"
    ]
  },
  {
    "id": 382,
    "point": {
      "latitude": 53.127825,
      "longitude": 23.091917
    },
    "name": "Popiełuszki / Bat.Chł.",
    "lines": [
      "12",
      "14",
      "N2"
    ]
  },
  {
    "id": 383,
    "point": {
      "latitude": 53.128403,
      "longitude": 23.08748
    },
    "name": "Popiełuszki / Szarych Szeregów",
    "lines": [
      "12",
      "14",
      "N2"
    ]
  },
  {
    "id": 384,
    "point": {
      "latitude": 53.125345,
      "longitude": 23.086365
    },
    "name": "Boboli/Letnia",
    "lines": [
      "107",
      "12",
      "N2"
    ]
  },
  {
    "id": 385,
    "point": {
      "latitude": 53.12189,
      "longitude": 23.08671
    },
    "name": "Starosielce PKP",
    "lines": [
      "107",
      "12",
      "25",
      "8",
      "N2"
    ]
  },
  {
    "id": 386,
    "point": {
      "latitude": 53.119572,
      "longitude": 23.092685
    },
    "name": "al.Niepodległości/Szkoła",
    "lines": [
      "107",
      "25",
      "N2"
    ]
  },
  {
    "id": 387,
    "point": {
      "latitude": 53.11762,
      "longitude": 23.097042
    },
    "name": "al.Niepodległości/Lawendowa",
    "lines": [
      "107",
      "25",
      "N2"
    ]
  },
  {
    "id": 388,
    "point": {
      "latitude": 53.134282,
      "longitude": 23.174828
    },
    "name": "Słonimska/Urząd Miejski",
    "lines": [
      "28",
      "5",
      "N5"
    ]
  },
  {
    "id": 389,
    "point": {
      "latitude": 53.13472,
      "longitude": 23.183425
    },
    "name": "Piasta",
    "lines": [
      "28",
      "5",
      "N5"
    ]
  },
  {
    "id": 390,
    "point": {
      "latitude": 53.133587,
      "longitude": 23.191238
    },
    "name": "Mieszka I/Apteka",
    "lines": [
      "28",
      "5",
      "N5"
    ]
  },
  {
    "id": 391,
    "point": {
      "latitude": 53.134684,
      "longitude": 23.198821
    },
    "name": "Piasta/Andrukiewicza",
    "lines": [
      "12",
      "28",
      "N5"
    ]
  },
  {
    "id": 392,
    "point": {
      "latitude": 53.133003,
      "longitude": 23.205405
    },
    "name": "Piasta/Włościańska",
    "lines": [
      "12",
      "28",
      "N5"
    ]
  },
  {
    "id": 393,
    "point": {
      "latitude": 53.13404,
      "longitude": 23.2089
    },
    "name": "Włościańska/Brzostowskiego",
    "lines": [
      "12",
      "28",
      "N5"
    ]
  },
  {
    "id": 394,
    "point": {
      "latitude": 53.134703,
      "longitude": 23.211295
    },
    "name": "Osiedle Pieczurki",
    "lines": [
      "12",
      "28",
      "6",
      "N5"
    ]
  },
  {
    "id": 395,
    "point": {
      "latitude": 53.13766,
      "longitude": 23.21174
    },
    "name": "Dolistowska/Dolistówka",
    "lines": [
      "28",
      "6",
      "N5"
    ]
  },
  {
    "id": 396,
    "point": {
      "latitude": 53.143328,
      "longitude": 23.212817
    },
    "name": "Brzechwy/42. Pułku Piechoty",
    "lines": [
      "18",
      "28",
      "6",
      "N5"
    ]
  },
  {
    "id": 397,
    "point": {
      "latitude": 53.147917,
      "longitude": 23.210937
    },
    "name": "Chełmońskiego/Rubinowicza",
    "lines": [
      "18",
      "28",
      "6",
      "N5"
    ]
  },
  {
    "id": 398,
    "point": {
      "latitude": 53.148285,
      "longitude": 23.20564
    },
    "name": "Chełmońskiego/Leńskiego",
    "lines": [
      "18",
      "28",
      "6",
      "N5"
    ]
  },
  {
    "id": 399,
    "point": {
      "latitude": 53.143795,
      "longitude": 23.202953
    },
    "name": "42. Pułku Piechoty/A.Fredry",
    "lines": [
      "13",
      "28",
      "N5"
    ]
  },
  {
    "id": 400,
    "point": {
      "latitude": 53.142085,
      "longitude": 23.21269
    },
    "name": "Dolistowska/42. Pułku Piechoty",
    "lines": [
      "28",
      "6",
      "N5"
    ]
  },
  {
    "id": 401,
    "point": {
      "latitude": 53.138008,
      "longitude": 23.211843
    },
    "name": "Dolistowska/Ogr.Działk.Pieczurki",
    "lines": [
      "28",
      "6",
      "N5"
    ]
  },
  {
    "id": 402,
    "point": {
      "latitude": 53.134133,
      "longitude": 23.20757
    },
    "name": "Włościańska/Pieczurki",
    "lines": [
      "12",
      "28",
      "N5"
    ]
  },
  {
    "id": 403,
    "point": {
      "latitude": 53.13326,
      "longitude": 23.204457
    },
    "name": "Piasta/Przejazd",
    "lines": [
      "12",
      "28",
      "N5"
    ]
  },
  {
    "id": 404,
    "point": {
      "latitude": 53.134684,
      "longitude": 23.198821
    },
    "name": "Piasta/Andrukiewicza",
    "lines": [
      "12",
      "28",
      "N5"
    ]
  },
  {
    "id": 405,
    "point": {
      "latitude": 53.133115,
      "longitude": 23.192292
    },
    "name": "Mieszka I/Piastowska",
    "lines": [
      "28",
      "5",
      "N5"
    ]
  },
  {
    "id": 406,
    "point": {
      "latitude": 53.134913,
      "longitude": 23.187343
    },
    "name": "Mieszka I/Szkoła",
    "lines": [
      "28",
      "5",
      "N5"
    ]
  },
  {
    "id": 407,
    "point": {
      "latitude": 53.134757,
      "longitude": 23.180963
    },
    "name": "Piasta/Skorupska",
    "lines": [
      "28",
      "5",
      "N5"
    ]
  },
  {
    "id": 408,
    "point": {
      "latitude": 53.134102,
      "longitude": 23.17376
    },
    "name": "Słonimska/Urząd Miejski",
    "lines": [
      "28",
      "5",
      "N5"
    ]
  },
  {
    "id": 409,
    "point": {
      "latitude": 53.117111,
      "longitude": 23.144292
    },
    "name": "Wiejska/Pogodna",
    "lines": [
      "10",
      "104",
      "11",
      "120",
      "16",
      "23",
      "26",
      "3",
      "N3"
    ]
  },
  {
    "id": 410,
    "point": {
      "latitude": 53.114898,
      "longitude": 23.145637
    },
    "name": "Wiejska/Zachodnia",
    "lines": [
      "10",
      "104",
      "11",
      "120",
      "16",
      "23",
      "26",
      "3",
      "N3"
    ]
  },
  {
    "id": 411,
    "point": {
      "latitude": 53.113355,
      "longitude": 23.146745
    },
    "name": "Wiejska/Kręta",
    "lines": [
      "10",
      "104",
      "11",
      "120",
      "16",
      "23",
      "26",
      "3",
      "N3"
    ]
  },
  {
    "id": 412,
    "point": {
      "latitude": 53.109597,
      "longitude": 23.145672
    },
    "name": "Pułaskiego/Kawaleryjska",
    "lines": [
      "16",
      "23",
      "26",
      "N3"
    ]
  },
  {
    "id": 413,
    "point": {
      "latitude": 53.109645,
      "longitude": 23.13711
    },
    "name": "Pułaskiego/Szkoła",
    "lines": [
      "16",
      "23",
      "26",
      "N3"
    ]
  },
  {
    "id": 414,
    "point": {
      "latitude": 53.10967,
      "longitude": 23.133303
    },
    "name": "Pułaskiego/Wspólna",
    "lines": [
      "16",
      "23",
      "26",
      "N3"
    ]
  },
  {
    "id": 415,
    "point": {
      "latitude": 53.109627,
      "longitude": 23.126293
    },
    "name": "Pułaskiego/Zachodnia",
    "lines": [
      "16",
      "2",
      "23",
      "26",
      "N3"
    ]
  },
  {
    "id": 416,
    "point": {
      "latitude": 53.106955,
      "longitude": 23.12389
    },
    "name": "Rzymowskiego/Dubois",
    "lines": [
      "16",
      "2",
      "26",
      "N3"
    ]
  },
  {
    "id": 417,
    "point": {
      "latitude": 53.106645,
      "longitude": 23.119005
    },
    "name": "Paderewskiego/Rzymowskiego",
    "lines": [
      "16",
      "2",
      "26",
      "N3"
    ]
  },
  {
    "id": 418,
    "point": {
      "latitude": 53.107523,
      "longitude": 23.11648
    },
    "name": "Paderewskiego",
    "lines": [
      "16",
      "2",
      "26",
      "N3"
    ]
  },
  {
    "id": 419,
    "point": {
      "latitude": 53.138802,
      "longitude": 23.133998
    },
    "name": "al.Solidarności/Choroszczańska",
    "lines": [
      "107",
      "12",
      "14",
      "24"
    ]
  },
  {
    "id": 420,
    "point": {
      "latitude": 53.128665,
      "longitude": 23.084418
    },
    "name": "Popiełuszki / Boboli",
    "lines": [
      "107",
      "14"
    ]
  },
  {
    "id": 421,
    "point": {
      "latitude": 53.128098,
      "longitude": 23.07687
    },
    "name": "Osiedle KZKS",
    "lines": [
      "107",
      "14",
      "4"
    ]
  },
  {
    "id": 422,
    "point": {
      "latitude": 53.123958,
      "longitude": 23.080963
    },
    "name": "Nowosielska/Węgierska",
    "lines": [
      "107",
      "14",
      "4"
    ]
  },
  {
    "id": 423,
    "point": {
      "latitude": 53.120117,
      "longitude": 23.084145
    },
    "name": "Meksykańska IPN",
    "lines": [
      "107",
      "14",
      "4"
    ]
  },
  {
    "id": 424,
    "point": {
      "latitude": 53.114872,
      "longitude": 23.082535
    },
    "name": "Meksykańska/Rumuńska",
    "lines": [
      "107",
      "14",
      "4"
    ]
  },
  {
    "id": 425,
    "point": {
      "latitude": 53.113337,
      "longitude": 23.08107
    },
    "name": "Niewodnicka/Spokojna",
    "lines": [
      "107",
      "14",
      "4"
    ]
  },
  {
    "id": 426,
    "point": {
      "latitude": 53.112692,
      "longitude": 23.086222
    },
    "name": "Klepacka/Pętla",
    "lines": [
      "14",
      "4"
    ]
  },
  {
    "id": 427,
    "point": {
      "latitude": 53.112794,
      "longitude": 23.085756
    },
    "name": "Klepacka/Pętla",
    "lines": [
      "14",
      "4"
    ]
  },
  {
    "id": 428,
    "point": {
      "latitude": 53.112013,
      "longitude": 23.080042
    },
    "name": "Niewodnicka/Spokojna",
    "lines": [
      "107",
      "14",
      "4"
    ]
  },
  {
    "id": 429,
    "point": {
      "latitude": 53.115528,
      "longitude": 23.08316
    },
    "name": "Meksykańska/Watykańska",
    "lines": [
      "107",
      "14",
      "4"
    ]
  },
  {
    "id": 430,
    "point": {
      "latitude": 53.120772,
      "longitude": 23.084147
    },
    "name": "Meksykańska IPN",
    "lines": [
      "107",
      "14",
      "4"
    ]
  },
  {
    "id": 431,
    "point": {
      "latitude": 53.123415,
      "longitude": 23.081752
    },
    "name": "Nowosielska/Węgierska",
    "lines": [
      "107",
      "14",
      "4"
    ]
  },
  {
    "id": 432,
    "point": {
      "latitude": 53.127368,
      "longitude": 23.077192
    },
    "name": "Osiedle KZKS",
    "lines": [
      "107",
      "14",
      "4"
    ]
  },
  {
    "id": 433,
    "point": {
      "latitude": 53.12834,
      "longitude": 23.086178
    },
    "name": "Popiełuszki / Boboli",
    "lines": [
      "12",
      "14"
    ]
  },
  {
    "id": 434,
    "point": {
      "latitude": 53.127147,
      "longitude": 23.094813
    },
    "name": "Popiełuszki / Ubocze",
    "lines": [
      "12",
      "14"
    ]
  },
  {
    "id": 435,
    "point": {
      "latitude": 53.118135,
      "longitude": 23.126095
    },
    "name": "Składowa/Stacja Paliw",
    "lines": [
      "11",
      "17",
      "2",
      "6",
      "8"
    ]
  },
  {
    "id": 436,
    "point": {
      "latitude": 53.122452,
      "longitude": 23.122487
    },
    "name": "Składowa/Tunel",
    "lines": [
      "11",
      "17",
      "2",
      "8"
    ]
  },
  {
    "id": 437,
    "point": {
      "latitude": 53.124995,
      "longitude": 23.116153
    },
    "name": "Hetmańska/Gen.Fieldorfa \"Nila\"",
    "lines": [
      "11",
      "12",
      "17",
      "2",
      "21"
    ]
  },
  {
    "id": 438,
    "point": {
      "latitude": 53.144468,
      "longitude": 23.132257
    },
    "name": "Antoniukowska / Świętokrzyska",
    "lines": [
      "106",
      "11",
      "18",
      "19",
      "5",
      "7",
      "9"
    ]
  },
  {
    "id": 439,
    "point": {
      "latitude": 53.146318,
      "longitude": 23.125422
    },
    "name": "Antoniuk F./Gajowa",
    "lines": [
      "106",
      "11",
      "18",
      "19",
      "5",
      "7",
      "9"
    ]
  },
  {
    "id": 440,
    "point": {
      "latitude": 53.153843,
      "longitude": 23.133523
    },
    "name": "Berlinga/Dziesięciny",
    "lines": [
      "11",
      "5"
    ]
  },
  {
    "id": 441,
    "point": {
      "latitude": 53.147935,
      "longitude": 23.118668
    },
    "name": "Antoniuk F. / Konstytucji 3 Maja",
    "lines": [
      "106",
      "11",
      "18",
      "19",
      "5",
      "7",
      "9"
    ]
  },
  {
    "id": 442,
    "point": {
      "latitude": 53.145457,
      "longitude": 23.12813
    },
    "name": "Antoniuk F. / Ogrodniczki",
    "lines": [
      "106",
      "11",
      "18",
      "19",
      "5",
      "7",
      "9"
    ]
  },
  {
    "id": 443,
    "point": {
      "latitude": 53.12864,
      "longitude": 23.117793
    },
    "name": "Hetmańska/Marczukowska",
    "lines": [
      "11",
      "12",
      "17",
      "2",
      "21"
    ]
  },
  {
    "id": 444,
    "point": {
      "latitude": 53.122705,
      "longitude": 23.121807
    },
    "name": "Składowa/Octowa",
    "lines": [
      "11",
      "17",
      "2",
      "6",
      "8"
    ]
  },
  {
    "id": 445,
    "point": {
      "latitude": 53.117607,
      "longitude": 23.1262
    },
    "name": "Składowa/Hurtowa",
    "lines": [
      "11",
      "17",
      "2",
      "6",
      "8"
    ]
  },
  {
    "id": 446,
    "point": {
      "latitude": 53.115472,
      "longitude": 23.127853
    },
    "name": "Składowa P.K.",
    "lines": [
      "11",
      "17",
      "2",
      "8"
    ]
  },
  {
    "id": 447,
    "point": {
      "latitude": 53.109043,
      "longitude": 23.149195
    },
    "name": "Wiosenna/Słoneczna",
    "lines": [
      "11",
      "120"
    ]
  },
  {
    "id": 448,
    "point": {
      "latitude": 53.105968,
      "longitude": 23.142842
    },
    "name": "Kawaleryjska/Bazar",
    "lines": [
      "10",
      "104",
      "11",
      "3"
    ]
  },
  {
    "id": 449,
    "point": {
      "latitude": 53.102858,
      "longitude": 23.138357
    },
    "name": "Kawaleryjska/Zapiecek",
    "lines": [
      "10",
      "104",
      "11",
      "3"
    ]
  },
  {
    "id": 450,
    "point": {
      "latitude": 53.103645,
      "longitude": 23.139203
    },
    "name": "Kawaleryjska/Zapiecek",
    "lines": [
      "10",
      "104",
      "11",
      "3"
    ]
  },
  {
    "id": 451,
    "point": {
      "latitude": 53.106173,
      "longitude": 23.143197
    },
    "name": "Kawaleryjska/Bazar",
    "lines": [
      "10",
      "104",
      "11",
      "3"
    ]
  },
  {
    "id": 452,
    "point": {
      "latitude": 53.109046,
      "longitude": 23.149307
    },
    "name": "Wiosenna/11 Listopada",
    "lines": [
      "11"
    ]
  },
  {
    "id": 453,
    "point": {
      "latitude": 53.113333,
      "longitude": 23.147162
    },
    "name": "Wiejska/Uniwersytet",
    "lines": [
      "10",
      "104",
      "11",
      "16",
      "23",
      "26",
      "3"
    ]
  },
  {
    "id": 454,
    "point": {
      "latitude": 53.116278,
      "longitude": 23.145017
    },
    "name": "Wiejska - Politechnika",
    "lines": [
      "10",
      "104",
      "11",
      "16",
      "23",
      "26",
      "3"
    ]
  },
  {
    "id": 455,
    "point": {
      "latitude": 53.114282,
      "longitude": 23.129467
    },
    "name": "Składowa/Urząd Miejski",
    "lines": [
      "11",
      "17",
      "2",
      "8"
    ]
  },
  {
    "id": 456,
    "point": {
      "latitude": 53.158178,
      "longitude": 23.125611
    },
    "name": "Karskiego/Oliwkowa",
    "lines": [
      "11"
    ]
  },
  {
    "id": 457,
    "point": {
      "latitude": 53.163325,
      "longitude": 23.120503
    },
    "name": "Lodowa/Zamoyskiego",
    "lines": [
      "11"
    ]
  },
  {
    "id": 458,
    "point": {
      "latitude": 53.16657,
      "longitude": 23.117625
    },
    "name": "Lodowa/Skrzetuskiego",
    "lines": [
      "11"
    ]
  },
  {
    "id": 459,
    "point": {
      "latitude": 53.166728,
      "longitude": 23.112875
    },
    "name": "Końcowa/Liliowa",
    "lines": [
      "11"
    ]
  },
  {
    "id": 460,
    "point": {
      "latitude": 53.164143,
      "longitude": 23.111342
    },
    "name": "Zawady",
    "lines": [
      "11"
    ]
  },
  {
    "id": 461,
    "point": {
      "latitude": 53.16103,
      "longitude": 23.113942
    },
    "name": "Zawady/Pętla",
    "lines": [
      "11"
    ]
  },
  {
    "id": 462,
    "point": {
      "latitude": 53.161142,
      "longitude": 23.113688
    },
    "name": "Zawady/Pętla",
    "lines": [
      "11"
    ]
  },
  {
    "id": 463,
    "point": {
      "latitude": 53.164665,
      "longitude": 23.110967
    },
    "name": "Zawady",
    "lines": [
      "11"
    ]
  },
  {
    "id": 464,
    "point": {
      "latitude": 53.16666,
      "longitude": 23.113467
    },
    "name": "Końcowa/Liliowa",
    "lines": [
      "11"
    ]
  },
  {
    "id": 465,
    "point": {
      "latitude": 53.165463,
      "longitude": 23.118442
    },
    "name": "Lodowa/Chłodna",
    "lines": [
      "11"
    ]
  },
  {
    "id": 466,
    "point": {
      "latitude": 53.162692,
      "longitude": 23.120968
    },
    "name": "Lodowa/Zamoyskiego",
    "lines": [
      "11"
    ]
  },
  {
    "id": 467,
    "point": {
      "latitude": 53.158014,
      "longitude": 23.126672
    },
    "name": "Karskiego/Oliwkowa",
    "lines": [
      "11"
    ]
  },
  {
    "id": 468,
    "point": {
      "latitude": 53.115345,
      "longitude": 23.120397
    },
    "name": "Hurtowa",
    "lines": [
      "6"
    ]
  },
  {
    "id": 469,
    "point": {
      "latitude": 53.116638,
      "longitude": 23.116062
    },
    "name": "Sejneńska/Handlowa",
    "lines": [
      "6"
    ]
  },
  {
    "id": 470,
    "point": {
      "latitude": 53.11758,
      "longitude": 23.113773
    },
    "name": "Sejneńska/Cementownia",
    "lines": [
      "6"
    ]
  },
  {
    "id": 471,
    "point": {
      "latitude": 53.117088,
      "longitude": 23.109022
    },
    "name": "Bażantarnia",
    "lines": [
      "6"
    ]
  },
  {
    "id": 472,
    "point": {
      "latitude": 53.117407,
      "longitude": 23.11384
    },
    "name": "Sejneńska",
    "lines": [
      "6"
    ]
  },
  {
    "id": 473,
    "point": {
      "latitude": 53.1155,
      "longitude": 23.121192
    },
    "name": "Hurtowa I",
    "lines": [
      "6"
    ]
  },
  {
    "id": 474,
    "point": {
      "latitude": 53.124742,
      "longitude": 23.138667
    },
    "name": "Kopernika/Wop",
    "lines": [
      "19",
      "23",
      "28",
      "6"
    ]
  },
  {
    "id": 475,
    "point": {
      "latitude": 53.122345,
      "longitude": 23.14322
    },
    "name": "Kopernika/Os. Bema",
    "lines": [
      "19",
      "23",
      "28",
      "6"
    ]
  },
  {
    "id": 476,
    "point": {
      "latitude": 53.148458,
      "longitude": 23.202743
    },
    "name": "Chełmońskiego/Kazimierza Wielkiego",
    "lines": [
      "18",
      "6"
    ]
  },
  {
    "id": 477,
    "point": {
      "latitude": 53.148168,
      "longitude": 23.206653
    },
    "name": "Chełmońskiego/Szymanowskiego",
    "lines": [
      "18",
      "6"
    ]
  },
  {
    "id": 478,
    "point": {
      "latitude": 53.147777,
      "longitude": 23.211815
    },
    "name": "Chełmońskiego/Matejki",
    "lines": [
      "18",
      "6"
    ]
  },
  {
    "id": 479,
    "point": {
      "latitude": 53.121693,
      "longitude": 23.145387
    },
    "name": "Kopernika / Kaczorowskiego",
    "lines": [
      "19",
      "23",
      "28",
      "6"
    ]
  },
  {
    "id": 480,
    "point": {
      "latitude": 53.123447,
      "longitude": 23.14172
    },
    "name": "Kopernika/Gen.J.Bema",
    "lines": [
      "19",
      "23",
      "28",
      "6"
    ]
  },
  {
    "id": 481,
    "point": {
      "latitude": 53.120387,
      "longitude": 23.147253
    },
    "name": "Zwierzyniecka/Wiejska",
    "lines": [
      "10",
      "28",
      "29",
      "8"
    ]
  },
  {
    "id": 482,
    "point": {
      "latitude": 53.119782,
      "longitude": 23.152173
    },
    "name": "Zwierzyniecka/Domy Studenta",
    "lines": [
      "10",
      "28",
      "29",
      "8"
    ]
  },
  {
    "id": 483,
    "point": {
      "latitude": 53.119415,
      "longitude": 23.155885
    },
    "name": "Zwierzyniecka/Świerkowa",
    "lines": [
      "10",
      "28",
      "29",
      "8"
    ]
  },
  {
    "id": 484,
    "point": {
      "latitude": 53.11904,
      "longitude": 23.160488
    },
    "name": "Zwierzyniecka - Cm.Wojskowy",
    "lines": [
      "28",
      "29"
    ]
  },
  {
    "id": 485,
    "point": {
      "latitude": 53.118493,
      "longitude": 23.167857
    },
    "name": "Św.Pio / Białowieska",
    "lines": [
      "28",
      "29"
    ]
  },
  {
    "id": 486,
    "point": {
      "latitude": 53.121003,
      "longitude": 23.174065
    },
    "name": "Mickiewicza/Miłosza",
    "lines": [
      "19",
      "24",
      "28",
      "4",
      "7",
      "N4"
    ]
  },
  {
    "id": 487,
    "point": {
      "latitude": 53.125297,
      "longitude": 23.171605
    },
    "name": "Mickiewicza/Orzeszkowej",
    "lines": [
      "19",
      "24",
      "28",
      "4",
      "7",
      "N4"
    ]
  },
  {
    "id": 488,
    "point": {
      "latitude": 53.128405,
      "longitude": 23.169167
    },
    "name": "Mickiewicza/Urząd Wojewódzki",
    "lines": [
      "19",
      "24",
      "28",
      "4",
      "N4"
    ]
  },
  {
    "id": 489,
    "point": {
      "latitude": 53.132693,
      "longitude": 23.169845
    },
    "name": "Pałacowa/Hotel",
    "lines": [
      "28",
      "5"
    ]
  },
  {
    "id": 490,
    "point": {
      "latitude": 53.197255,
      "longitude": 23.198645
    },
    "name": "Wasilków / Jurowiecka",
    "lines": [
      "100",
      "N6"
    ]
  },
  {
    "id": 491,
    "point": {
      "latitude": 53.14279,
      "longitude": 23.214014
    },
    "name": "42. Pułku Piechoty/Zakład Poprawczy",
    "lines": [
      "18",
      "28"
    ]
  },
  {
    "id": 492,
    "point": {
      "latitude": 53.13247,
      "longitude": 23.19811
    },
    "name": "Andrukiewicza/Sybiarków",
    "lines": [
      "28"
    ]
  },
  {
    "id": 493,
    "point": {
      "latitude": 53.132713,
      "longitude": 23.16954
    },
    "name": "Pałacowa/Hotel",
    "lines": [
      "2",
      "28",
      "5",
      "8",
      "N4"
    ]
  },
  {
    "id": 494,
    "point": {
      "latitude": 53.124442,
      "longitude": 23.18122
    },
    "name": "Miłosza/Branickiego",
    "lines": [
      "24",
      "29",
      "7"
    ]
  },
  {
    "id": 495,
    "point": {
      "latitude": 53.12163,
      "longitude": 23.178515
    },